{"type": "FeatureCollection", "features": [{"type": "Feature", "geometry": {"type": "Point", "coordinates": [17.8356505, 40.5803646]}, "properties": {"name": "Mesagne", "description": "### alicepizza_official\n**Sede:** Mesagne\n**Indirizzo:** SS7, KM 10,0 c/o Centro Commerciale AppiAntica, 72023 Mesagne BR, Italia\n**Orari:** Mo-Su 11:00-21:30\n**Telefono:** 0687805655\n**Sito Web:** [[https://www.alicepizza.it/store/alice-pizza-mesagne/|Link]]", "_umap_options": {"color": "#666666", "iconClass": "Circle"}}}, {"type": "Feature", "geometry": {"type": "Point", "coordinates": [9.0655828, 39.258193]}, "properties": {"name": "Elmas", "description": "### alicepizza_official\n**Sede:** Elmas\n**Indirizzo:** FASS Shopping Centre, Viale Elmas, 09067 Cagliari CA, Cagliari\n**Orari:** Mo-Su 10:00-24:00\n**Telefono:** 0240703328\n**Sito Web:** [[https://www.alicepizza.it/store/alice-pizza-elmas/|Link]]", "_umap_options": {"color": "#666666", "iconClass": "Circle"}}}, {"type": "Feature", "geometry": {"type": "Point", "coordinates": [9.0913243, 39.2316617]}, "properties": {"name": "I Fenicotteri", "description": "### alicepizza_official\n**Sede:** I Fenicotteri\n**Indirizzo:** Via S. Simone, 60, 09122 Cagliari CA, Cagliari\n**Orari:** Mo-Su 9:00-21:00\n**Telefono:** 0687805655\n**Sito Web:** [[https://www.alicepizza.it/store/alice-pizza-i-fenicotteri/|Link]]", "_umap_options": {"color": "#666666", "iconClass": "Circle"}}}, {"type": "Feature", "geometry": {"type": "Point", "coordinates": [8.941481115869125, 44.39542596384169]}, "properties": {"name": "Genova Waterfront", "description": "### alicepizza_official\n**Sede:** Genova Waterfront\n**Indirizzo:** P.le John Fitzgerald Kennedy, 1, 16129 Genova GE, Genova\n**Orari:** Mo-Th 8:30-23:00,8:30-24:00\n**Telefono:** +39 02 4070 3328\n**Sito Web:** [[https://www.alicepizza.it/store/alice-pizza-genova-waterfront/|Link]]", "_umap_options": {"color": "#666666", "iconClass": "Circle"}}}, {"type": "Feature", "geometry": {"type": "Point", "coordinates": [10.1768437, 45.5463999]}, "properties": {"name": "Brescia Sant'Anna", "description": "### alicepizza_official\n**Sede:** Brescia Sant'Anna\n**Indirizzo:** V. Valcamonica, 25126 Brescia BS, Brescia\n**Orari:** Mo-Su 11:00-20:00\n**Telefono:** 0240703328\n**Sito Web:** [[https://www.alicepizza.it/store/alice-pizza-brescia-santanna/|Link]]", "_umap_options": {"color": "#666666", "iconClass": "Circle"}}}, {"type": "Feature", "geometry": {"type": "Point", "coordinates": [11.336505, 46.486593]}, "properties": {"name": "Bolzano", "description": "### alicepizza_official\n**Sede:** Bolzano\n**Indirizzo:** Via Galileo Galilei 20 c/o CC Twenty, 39100 Bolzano (BZ), Bolzano\n**Orari:** Mo-Su 11:00-21:30\n**Telefono:** 0471253447\n**Sito Web:** [[https://www.alicepizza.it/store/alice-pizza-bolzano/|Link]]", "_umap_options": {"color": "#666666", "iconClass": "Circle"}}}, {"type": "Feature", "geometry": {"type": "Point", "coordinates": [11.608341, 44.4342317]}, "properties": {"name": "Castelguelfo", "description": "### alicepizza_official\n**Sede:** Castelguelfo\n**Indirizzo:** Via del Commercio, 4/2, 40023 Poggio Piccolo BO, Bologna\n**Orari:** Mo-Fr 10:00-20:00; Su 10:00-21:00\n**Telefono:** 0240703328\n**Sito Web:** [[https://www.alicepizza.it/store/alice-pizza-castelguelfo/|Link]]", "_umap_options": {"color": "#666666", "iconClass": "Circle"}}}, {"type": "Feature", "geometry": {"type": "Point", "coordinates": [11.3294678, 44.5141483]}, "properties": {"name": "Centrolame", "description": "### alicepizza_official\n**Sede:** Centrolame\n**Indirizzo:** Via Marco Polo, 3, 40131 Bologna BO c/o Centro Commerciale Centrolame, Bologna\n**Orari:** Mo-Sa 11:00-21:00\n**Telefono:** 0240703328\n**Sito Web:** [[https://www.alicepizza.it/store/alice-pizza-centrolame/|Link]]", "_umap_options": {"color": "#666666", "iconClass": "Circle"}}}, {"type": "Feature", "geometry": {"type": "Point", "coordinates": [9.1180348, 39.2160417]}, "properties": {"name": "Cagliari Garibaldi", "description": "### alicepizza_official\n**Sede:** Cagliari Garibaldi\n**Indirizzo:** Via Giuseppe Garibaldi, 144-146, 09125 Cagliari CA, Cagliari\n**Telefono:** 07015257643\n**Sito Web:** [[https://www.alicepizza.it/store/alice-pizza-cagliari-garibaldi/|Link]]", "_umap_options": {"color": "#666666", "iconClass": "Circle"}}}, {"type": "Feature", "geometry": {"type": "Point", "coordinates": [12.4903532, 41.8956606]}, "properties": {"name": "Serpenti", "description": "### alicepizza_official\n**Sede:** Serpenti\n**Indirizzo:** Via dei Serpenti 20, Roma\n**Telefono:** 06 8780 5655\n**Sito Web:** [[https://www.alicepizza.it/store/alice-pizza-serpenti/|Link]]", "_umap_options": {"color": "#666666", "iconClass": "Circle"}}}, {"type": "Feature", "geometry": {"type": "Point", "coordinates": [12.4656599, 41.9322188]}, "properties": {"name": "Flaminio", "description": "### alicepizza_official\n**Sede:** Flaminio\n**Indirizzo:** Via Giulio Romano, 17, 00196 Roma RM, Roma\n**Telefono:** 0662286790\n**Sito Web:** [[https://www.alicepizza.it/store/alice-pizza-flaminio/|Link]]", "_umap_options": {"color": "#666666", "iconClass": "Circle"}}}, {"type": "Feature", "geometry": {"type": "Point", "coordinates": [13.2851666, 41.6210567]}, "properties": {"name": "CC Le Sorgenti", "description": "### alicepizza_official\n**Sede:** CC Le Sorgenti\n**Indirizzo:** Via armando vona , 20 C/O C.c. Le Sorgenti , Frosinone\n**Telefono:** 07751772009\n**Sito Web:** [[https://www.alicepizza.it/store/alice-pizza-cc-le-sorgenti/|Link]]", "_umap_options": {"color": "#666666", "iconClass": "Circle"}}}, {"type": "Feature", "geometry": {"type": "Point", "coordinates": [8.8312977, 45.81756610000001]}, "properties": {"name": "Varese", "description": "### alicepizza_official\n**Sede:** Varese\n**Indirizzo:** Via Morosini, 17, Varese, Varese\n**Telefono:** 0332480132\n**Sito Web:** [[https://www.alicepizza.it/store/alice-pizza-varese/|Link]]", "_umap_options": {"color": "#666666", "iconClass": "Circle"}}}, {"type": "Feature", "geometry": {"type": "Point", "coordinates": [12.4858053, 41.8608569]}, "properties": {"name": "7 chiese", "description": "### alicepizza_official\n**Sede:** 7 chiese\n**Indirizzo:** Largo delle Sette Chiese 13/13A, Roma, Roma\n**Telefono:** 065141247\n**Sito Web:** [[https://www.alicepizza.it/store/alice-pizza-7-chiese/|Link]]", "_umap_options": {"color": "#666666", "iconClass": "Circle"}}}, {"type": "Feature", "geometry": {"type": "Point", "coordinates": [12.5186273, 41.9128645]}, "properties": {"name": "Largo Ravenna", "description": "### alicepizza_official\n**Sede:** Largo Ravenna\n**Indirizzo:** Largo Ravenna 1, Roma (RM), Roma\n**Telefono:** 0696009476\n**Sito Web:** [[https://www.alicepizza.it/store/alice-pizza-largo-ravenna/|Link]]", "_umap_options": {"color": "#666666", "iconClass": "Circle"}}}, {"type": "Feature", "geometry": {"type": "Point", "coordinates": [12.4382373, 41.9020474]}, "properties": {"name": "Aura", "description": "### alicepizza_official\n**Sede:** Aura\n**Indirizzo:** Viale di Valle Aurelia 30, Roma (RM), Roma\n**Telefono:** 3483478079\n**Sito Web:** [[https://www.alicepizza.it/store/alice-pizza-aura/|Link]]", "_umap_options": {"color": "#666666", "iconClass": "Circle"}}}, {"type": "Feature", "geometry": {"type": "Point", "coordinates": [9.3651646, 45.33868160000001]}, "properties": {"name": "Melegnano", "description": "### alicepizza_official\n**Sede:** Melegnano\n**Indirizzo:** SS 9 via Emilia 2, Melegnano, Melegnano\n**Telefono:** 0230552408\n**Sito Web:** [[https://www.alicepizza.it/store/alice-pizza-melegnano/|Link]]", "_umap_options": {"color": "#666666", "iconClass": "Circle"}}}, {"type": "Feature", "geometry": {"type": "Point", "coordinates": [11.2163115, 44.5196655]}, "properties": {"name": "La Pioppa Est", "description": "### alicepizza_official\n**Sede:** La Pioppa Est\n**Indirizzo:** A14 Bologna-Taranto, Km 2.3 - Zola Predosa (BO), 40069, Bologna\n**Telefono:** 051756505\n**Sito Web:** [[https://www.alicepizza.it/store/alice-pizza-la-pioppa-est/|Link]]", "_umap_options": {"color": "#666666", "iconClass": "Circle"}}}, {"type": "Feature", "geometry": {"type": "Point", "coordinates": [12.018957138061523, 42.87621569853426]}, "properties": {"name": "Fabro Est", "description": "### alicepizza_official\n**Sede:** Fabro Est\n**Indirizzo:** A1 Napoli-Milano, Km 428 - Fabro, 05015, Terni, Italia\n**Telefono:** 0763832092\n**Sito Web:** [[https://www.alicepizza.it/store/alice-pizza-fabbro-est/|Link]]", "_umap_options": {"color": "#666666", "iconClass": "Circle"}}}, {"type": "Feature", "geometry": {"type": "Point", "coordinates": [12.4802859, 41.8191882]}, "properties": {"name": "Cesare Pavese", "description": "### alicepizza_official\n**Sede:** Cesare Pavese\n**Indirizzo:** Viale Cesare Pavese 28 - Roma, Roma\n**Telefono:** 06 69264237\n**Sito Web:** [[https://www.alicepizza.it/store/alice-pizza-cesare-pavese/|Link]]", "_umap_options": {"color": "#666666", "iconClass": "Circle"}}}, {"type": "Feature", "geometry": {"type": "Point", "coordinates": [8.7124406, 45.6273686]}, "properties": {"name": "Malpensa", "description": "### alicepizza_official\n**Sede:** Malpensa\n**Indirizzo:** Aeroporto Milano Malpensa - Terminal 1 arrivi internazionali, Ferno\n**Sito Web:** [[https://www.alicepizza.it/store/alice-pizza-malpensa/|Link]]", "_umap_options": {"color": "#666666", "iconClass": "Circle"}}}, {"type": "Feature", "geometry": {"type": "Point", "coordinates": [12.4072334, 41.959942]}, "properties": {"name": "Casal del Marmo", "description": "### alicepizza_official\n**Sede:** Casal del Marmo\n**Indirizzo:** Via di Casal del Marmo 123-125, Roma, Roma\n**Telefono:** 06-99705628\n**Sito Web:** [[https://www.alicepizza.it/store/alice-pizza-casal-del-marmo/|Link]]", "_umap_options": {"color": "#666666", "iconClass": "Circle"}}}, {"type": "Feature", "geometry": {"type": "Point", "coordinates": [12.5103141, 41.8858007]}, "properties": {"name": "largo Brindisi", "description": "### alicepizza_official\n**Sede:** largo Brindisi\n**Indirizzo:** Largo Brindisi 2, Roma, Roma\n**Telefono:** 06 8708 5688\n**Sito Web:** [[https://www.alicepizza.it/store/alice-largo-brindisi/|Link]]", "_umap_options": {"color": "#666666", "iconClass": "Circle"}}}, {"type": "Feature", "geometry": {"type": "Point", "coordinates": [9.2391504, 45.5503636]}, "properties": {"name": "Cinisello", "description": "### alicepizza_official\n**Sede:** Cinisello\n**Indirizzo:** Viale Brianza 2, Cinisello Balsamo, Cinisello Balsamo\n**Telefono:** 02 72199377\n**Sito Web:** [[https://www.alicepizza.it/store/alice-pizza-cinisello/|Link]]", "_umap_options": {"color": "#666666", "iconClass": "Circle"}}}, {"type": "Feature", "geometry": {"type": "Point", "coordinates": [9.9978154, 45.1493333]}, "properties": {"name": "CC CremonaPo", "description": "### alicepizza_official\n**Sede:** CC CremonaPo\n**Indirizzo:** Centro Commerciale CremonaPo, via Castelleone 108, Cremona (CR), Cremona\n**Telefono:** 02 40703328\n**Sito Web:** [[https://www.alicepizza.it/store/alice-pizza-cc-cremonapo/|Link]]", "_umap_options": {"color": "#666666", "iconClass": "Circle"}}}, {"type": "Feature", "geometry": {"type": "Point", "coordinates": [9.1936737, 45.4577045]}, "properties": {"name": "Sforza", "description": "### alicepizza_official\n**Sede:** Sforza\n**Indirizzo:** Via Francesco Sforza 49, Milano, Italia\n**Telefono:** 0240703328\n**Sito Web:** [[https://www.alicepizza.it/store/alice-pizza-sforza/|Link]]", "_umap_options": {"color": "#666666", "iconClass": "Circle"}}}, {"type": "Feature", "geometry": {"type": "Point", "coordinates": [9.104199099999999, 45.5111849]}, "properties": {"name": "C. Merlata", "description": "### alicepizza_official\n**Sede:** C. Merlata\n**Indirizzo:** Via Gottlieb Wilhelm Daimler, Milano, Italia\n**Telefono:** 0240703328\n**Sito Web:** [[https://www.alicepizza.it/store/17813/|Link]]", "_umap_options": {"color": "#666666", "iconClass": "Circle"}}}, {"type": "Feature", "geometry": {"type": "Point", "coordinates": [11.7796747, 45.0310571]}, "properties": {"name": "Rovigo", "description": "### alicepizza_official\n**Sede:** Rovigo\n**Indirizzo:** CC La Fattoria | SS16 Adriatica, 45100 Borsea (RO), Italia\n**Telefono:** 0240703328\n**Sito Web:** [[https://www.alicepizza.it/store/alice-pizza-rovigo/|Link]]", "_umap_options": {"color": "#666666", "iconClass": "Circle"}}}, {"type": "Feature", "geometry": {"type": "Point", "coordinates": [9.1549897, 45.4681763]}, "properties": {"name": "Wagner", "description": "### alicepizza_official\n**Sede:** Wagner\n**Indirizzo:** Via Buonarroti 9, Milano, Italia\n**Telefono:** 0240703328\n**Sito Web:** [[https://www.alicepizza.it/store/alice-pizza-wagner/|Link]]", "_umap_options": {"color": "#666666", "iconClass": "Circle"}}}, {"type": "Feature", "geometry": {"type": "Point", "coordinates": [9.1761693, 45.4661342]}, "properties": {"name": "cso Magenta", "description": "### alicepizza_official\n**Sede:** cso Magenta\n**Indirizzo:** Corso Magenta 34, Milano, Italia\n**Telefono:** 0240703328\n**Sito Web:** [[https://www.alicepizza.it/store/alice-pizza-cso-magenta/|Link]]", "_umap_options": {"color": "#666666", "iconClass": "Circle"}}}, {"type": "Feature", "geometry": {"type": "Point", "coordinates": [10.3023091, 43.5442141]}, "properties": {"name": "Livorno", "description": "### alicepizza_official\n**Sede:** Livorno\n**Indirizzo:** CC Porta a Mare | Via Furio Diaz 3, Livorno, Italia\n**Sito Web:** [[https://www.alicepizza.it/store/alice-pizza-livorno/|Link]]", "_umap_options": {"color": "#666666", "iconClass": "Circle"}}}, {"type": "Feature", "geometry": {"type": "Point", "coordinates": [10.52731, 45.4641826]}, "properties": {"name": "Desenzano", "description": "### alicepizza_official\n**Sede:** Desenzano\n**Indirizzo:** Centro Commerciale Le Vele | Via Guglielmo Marconi 1, Desenzano del Garda (BS), Desenzano del Garda\n**Sito Web:** [[https://www.alicepizza.it/store/alice-pizza-desenzano/|Link]]", "_umap_options": {"color": "#666666", "iconClass": "Circle"}}}, {"type": "Feature", "geometry": {"type": "Point", "coordinates": [12.455453, 41.9092387]}, "properties": {"name": "Leone IV", "description": "### alicepizza_official\n**Sede:** Leone IV\n**Indirizzo:** Via Leone IV 95-97, Roma, Italia\n**Telefono:** 0687860616\n**Sito Web:** [[https://www.alicepizza.it/store/alice-pizza-leone-iv/|Link]]", "_umap_options": {"color": "#666666", "iconClass": "Circle"}}}, {"type": "Feature", "geometry": {"type": "Point", "coordinates": [9.2164, 45.520679]}, "properties": {"name": "Bicocca", "description": "### alicepizza_official\n**Sede:** Bicocca\n**Indirizzo:** Viale Sarca, angolo via Chiese, Milano, Italia\n**Telefono:** 0240703328\n**Sito Web:** [[https://www.alicepizza.it/store/alice-pizza-bicocca/|Link]]", "_umap_options": {"color": "#666666", "iconClass": "Circle"}}}, {"type": "Feature", "geometry": {"type": "Point", "coordinates": [8.472387, 44.313237]}, "properties": {"name": "Savona", "description": "### alicepizza_official\n**Sede:** Savona\n**Indirizzo:** Corso Ricci 203/r, Savona, Italia\n**Sito Web:** [[https://www.alicepizza.it/store/alice-pizza-savona/|Link]]", "_umap_options": {"color": "#666666", "iconClass": "Circle"}}}, {"type": "Feature", "geometry": {"type": "Point", "coordinates": [12.5015756, 41.9012873]}, "properties": {"name": "Termini", "description": "### alicepizza_official\n**Sede:** Termini\n**Indirizzo:** Stazione Termini Roma, Italia\n**Telefono:** 0240703328\n**Sito Web:** [[https://www.alicepizza.it/store/alice-pizza-termini/|Link]]", "_umap_options": {"color": "#666666", "iconClass": "Circle"}}}, {"type": "Feature", "geometry": {"type": "Point", "coordinates": [9.184974799999999, 45.47792500000001]}, "properties": {"name": "Moscova", "description": "### alicepizza_official\n**Sede:** Moscova\n**Indirizzo:** Largo La Foppa 2, Milano, Italia\n**Telefono:** 0240703328\n**Sito Web:** [[https://www.alicepizza.it/store/alice-pizza-moscova/|Link]]", "_umap_options": {"color": "#666666", "iconClass": "Circle"}}}, {"type": "Feature", "geometry": {"type": "Point", "coordinates": [13.553479558227547, 37.29827279721968]}, "properties": {"name": "Città dei Templi", "description": "### alicepizza_official\n**Sede:** Città dei Templi\n**Indirizzo:** Via Fosse Ardeatine, Agrigento, Agrigento\n**Telefono:** 09221884232\n**Sito Web:** [[https://www.alicepizza.it/store/alice-pizza-citta-dei-templi/|Link]]", "_umap_options": {"color": "#666666", "iconClass": "Circle"}}}, {"type": "Feature", "geometry": {"type": "Point", "coordinates": [7.59234208366701, 45.02442820652596]}, "properties": {"name": "Beinasco", "description": "### alicepizza_official\n**Sede:** Beinasco\n**Indirizzo:** CC Le Fornaci - Strada Torino 34/36, Beinasco, Italia\n**Telefono:** 02.40703328\n**Sito Web:** [[https://www.alicepizza.it/store/alice-pizza-beinasco/|Link]]", "_umap_options": {"color": "#666666", "iconClass": "Circle"}}}, {"type": "Feature", "geometry": {"type": "Point", "coordinates": [12.3307899, 41.7858586]}, "properties": {"name": "Dragona", "description": "### alicepizza_official\n**Sede:** Dragona\n**Indirizzo:** Via di Dragone 390, Roma, Italia\n**Sito Web:** [[https://www.alicepizza.it/store/alice-pizza-dragona/|Link]]", "_umap_options": {"color": "#666666", "iconClass": "Circle"}}}, {"type": "Feature", "geometry": {"type": "Point", "coordinates": [12.6701488, 41.7888662]}, "properties": {"name": "Grottaferrata", "description": "### alicepizza_official\n**Sede:** Grottaferrata\n**Indirizzo:** Via A. Santovetti 16, Grottaferrata, Grottaferrata\n**Telefono:** 06.87726668\n**Sito Web:** [[https://www.alicepizza.it/store/alice-pizza-grottaferrata/|Link]]", "_umap_options": {"color": "#666666", "iconClass": "Circle"}}}, {"type": "Feature", "geometry": {"type": "Point", "coordinates": [9.2126702, 45.4625498]}, "properties": {"name": "XXII Marzo", "description": "### alicepizza_official\n**Sede:** XXII Marzo\n**Indirizzo:** Corso XXII Marzo 25, Milano, Italia\n**Telefono:** 02.40703328\n**Sito Web:** [[https://www.alicepizza.it/store/alice-pizza-xxii-marzo/|Link]]", "_umap_options": {"color": "#666666", "iconClass": "Circle"}}}, {"type": "Feature", "geometry": {"type": "Point", "coordinates": [9.178893, 45.4439225]}, "properties": {"name": "Meda", "description": "### alicepizza_official\n**Sede:** Meda\n**Indirizzo:** Via Meda 22, Milano, Italia\n**Telefono:** 02.40703328\n**Sito Web:** [[https://www.alicepizza.it/store/alice-pizza-meda/|Link]]", "_umap_options": {"color": "#666666", "iconClass": "Circle"}}}, {"type": "Feature", "geometry": {"type": "Point", "coordinates": [12.52897310752366, 41.971835575571866]}, "properties": {"name": "Fidene", "description": "### alicepizza_official\n**Sede:** Fidene\n**Indirizzo:** Piazza Vocazionisti 9, Roma, Italia\n**Telefono:** 06.8608044\n**Sito Web:** [[https://www.alicepizza.it/store/alice-pizza-fidene/|Link]]", "_umap_options": {"color": "#666666", "iconClass": "Circle"}}}, {"type": "Feature", "geometry": {"type": "Point", "coordinates": [9.6908281, 45.6652527]}, "properties": {"name": "Alice Orio Center", "description": "### alicepizza_official\n**Sede:** Alice Orio Center\n**Indirizzo:**  Via Portico, 71 Orio al Serio | Orio Center 1° Piano , Bergamo\n**Sito Web:** [[https://www.alicepizza.it/store/alice-orio-center/|Link]]", "_umap_options": {"color": "#666666", "iconClass": "Circle"}}}, {"type": "Feature", "geometry": {"type": "Point", "coordinates": [9.2026448, 45.4512485]}, "properties": {"name": "Sabotino", "description": "### alicepizza_official\n**Sede:** Sabotino\n**Indirizzo:** Viale Sabotino 38 Milano, Italia\n**Telefono:** 02.40703328\n**Sito Web:** [[https://www.alicepizza.it/store/alice-sabotino/|Link]]", "_umap_options": {"color": "#666666", "iconClass": "Circle"}}}, {"type": "Feature", "geometry": {"type": "Point", "coordinates": [9.1871983, 45.4645106]}, "properties": {"name": "Alice Orefici", "description": "### alicepizza_official\n**Sede:** Alice Orefici\n**Indirizzo:** Via Orefici 1 Milano, Italia\n**Telefono:** 02.40703328\n**Sito Web:** [[https://www.alicepizza.it/store/alice-orefici/|Link]]", "_umap_options": {"color": "#666666", "iconClass": "Circle"}}}, {"type": "Feature", "geometry": {"type": "Point", "coordinates": [12.5344443, 41.935689]}, "properties": {"name": "Alice Sempione", "description": "### alicepizza_official\n**Sede:** Alice Sempione\n**Indirizzo:** Via Gargano 10/12 Roma, Italia\n**Telefono:** 06 9604 8179\n**Sito Web:** [[https://www.alicepizza.it/store/alice-sempione/|Link]]", "_umap_options": {"color": "#666666", "iconClass": "Circle"}}}, {"type": "Feature", "geometry": {"type": "Point", "coordinates": [9.2139256, 45.4683833]}, "properties": {"name": "Alice Indipendenza", "description": "### alicepizza_official\n**Sede:** Alice Indipendenza\n**Indirizzo:** Corso Indipendenza 7, Milano, Milano\n**Telefono:** 02.40703328\n**Sito Web:** [[https://www.alicepizza.it/store/alice-indipendenza/|Link]]", "_umap_options": {"color": "#666666", "iconClass": "Circle"}}}, {"type": "Feature", "geometry": {"type": "Point", "coordinates": [12.470986, 41.8886033]}, "properties": {"name": "Alice Trastevere", "description": "### alicepizza_official\n**Sede:** Alice Trastevere\n**Indirizzo:** Via di S. Francesco a Ripa 1, Roma, Roma\n**Telefono:** 06 6935 5773\n**Sito Web:** [[https://www.alicepizza.it/store/alice-trastevere/|Link]]", "_umap_options": {"color": "#666666", "iconClass": "Circle"}}}, {"type": "Feature", "geometry": {"type": "Point", "coordinates": [9.1512441, 45.45119529999999]}, "properties": {"name": "Giambellino", "description": "### alicepizza_official\n**Sede:** Giambellino\n**Indirizzo:** Via Tolstoj 16, ang. Via Giambellino, 20144 Milano, Milano\n**Telefono:** 02.40703328\n**Sito Web:** [[https://www.alicepizza.it/store/alice-giambellino/|Link]]", "_umap_options": {"color": "#666666", "iconClass": "Circle"}}}, {"type": "Feature", "geometry": {"type": "Point", "coordinates": [9.153935100000002, 45.4377817]}, "properties": {"name": "Alice Miani", "description": "### alicepizza_official\n**Sede:** Alice Miani\n**Indirizzo:** Piazza Miani 4, 20143 Milano, Milano\n**Telefono:** 02.40703328\n**Sito Web:** [[https://www.alicepizza.it/store/alice-miani/|Link]]", "_umap_options": {"color": "#666666", "iconClass": "Circle"}}}, {"type": "Feature", "geometry": {"type": "Point", "coordinates": [9.211264000000002, 45.4492378]}, "properties": {"name": "Alice Viale Umbria", "description": "### alicepizza_official\n**Sede:** Alice Viale Umbria\n**Indirizzo:** Viale Umbria 15, 20135 Milano, Milano\n**Telefono:** 02.40703328\n**Sito Web:** [[https://www.alicepizza.it/store/alice-pizza-umbria/|Link]]", "_umap_options": {"color": "#666666", "iconClass": "Circle"}}}, {"type": "Feature", "geometry": {"type": "Point", "coordinates": [12.5672043, 41.9295108]}, "properties": {"name": "Alice Casal de' Pazzi", "description": "### alicepizza_official\n**Sede:** Alice Casal de' Pazzi\n**Indirizzo:** Via di Casal dei Pazzi, 107, 00156, Roma, Roma\n**Telefono:** 06 9437 5701\n**Sito Web:** [[https://www.alicepizza.it/store/alice-casal-de-pazzi/|Link]]", "_umap_options": {"color": "#666666", "iconClass": "Circle"}}}, {"type": "Feature", "geometry": {"type": "Point", "coordinates": [12.2435725, 41.9155222]}, "properties": {"name": "Alice Aranova", "description": "### alicepizza_official\n**Sede:** Alice Aranova\n**Indirizzo:** Via Arturo Pompeati Luchini 2374/2376, 00050, Fiumicino\n**Telefono:** 06.87777104\n**Sito Web:** [[https://www.alicepizza.it/store/alice-pizza-aranova/|Link]]", "_umap_options": {"color": "#666666", "iconClass": "Circle"}}}, {"type": "Feature", "geometry": {"type": "Point", "coordinates": [9.182949899999999, 45.4607858]}, "properties": {"name": "Via Torino", "description": "### alicepizza_official\n**Sede:** Via Torino\n**Indirizzo:** Via Torino 62, Milano, Milano\n**Telefono:** 02.40703328\n**Sito Web:** [[https://www.alicepizza.it/store/alice-via-torino/|Link]]", "_umap_options": {"color": "#666666", "iconClass": "Circle"}}}, {"type": "Feature", "geometry": {"type": "Point", "coordinates": [9.1687994, 45.4568358]}, "properties": {"name": "Via Solari 1", "description": "### alicepizza_official\n**Sede:** Via Solari 1\n**Indirizzo:** Via Solari 1, Milano, Milano\n**Telefono:** 02.40703328\n**Sito Web:** [[https://www.alicepizza.it/store/alice-via-solari-1/|Link]]", "_umap_options": {"color": "#666666", "iconClass": "Circle"}}}, {"type": "Feature", "geometry": {"type": "Point", "coordinates": [9.2076662, 45.4594687]}, "properties": {"name": "Alice Monte Nero", "description": "### alicepizza_official\n**Sede:** Alice Monte Nero\n**Indirizzo:** Via Spartaco 2, Milano, Milano\n**Telefono:** 02.40703328\n**Sito Web:** [[https://www.alicepizza.it/store/alice-monte-nero/|Link]]", "_umap_options": {"color": "#666666", "iconClass": "Circle"}}}, {"type": "Feature", "geometry": {"type": "Point", "coordinates": [9.2377297, 45.491014]}, "properties": {"name": "Alice Udine", "description": "### alicepizza_official\n**Sede:** Alice Udine\n**Indirizzo:** Via Feltre 1, Milano, Milano\n**Telefono:** 02 40703328\n**Sito Web:** [[https://www.alicepizza.it/store/alice-udine/|Link]]", "_umap_options": {"color": "#666666", "iconClass": "Circle"}}}, {"type": "Feature", "geometry": {"type": "Point", "coordinates": [7.612189, 45.0572324]}, "properties": {"name": "Alice Grugliasco", "description": "### alicepizza_official\n**Sede:** Alice Grugliasco\n**Indirizzo:** Shopville Le Gru | Via Crea 10 Grugliasco, Torino, Torino\n**Telefono:** 02.40703328\n**Sito Web:** [[https://www.alicepizza.it/store/alice-grugliasco/|Link]]", "_umap_options": {"color": "#666666", "iconClass": "Circle"}}}, {"type": "Feature", "geometry": {"type": "Point", "coordinates": [11.3225139, 43.3308609]}, "properties": {"name": "Alice PortaSiena", "description": "### alicepizza_official\n**Sede:** Alice PortaSiena\n**Indirizzo:** Galleria PortaSiena, Piazzale Rosselli 25, Siena, Siena\n**Sito Web:** [[https://www.alicepizza.it/store/alice-portasiena/|Link]]", "_umap_options": {"color": "#666666", "iconClass": "Circle"}}}, {"type": "Feature", "geometry": {"type": "Point", "coordinates": [9.1696669, 45.4635515]}, "properties": {"name": "Alice San Vittore", "description": "### alicepizza_official\n**Sede:** Alice San Vittore\n**Indirizzo:** Via San Vittore 1, Milano, Milano\n**Telefono:** 02.40703328\n**Sito Web:** [[https://www.alicepizza.it/store/alice-san-vittore/|Link]]", "_umap_options": {"color": "#666666", "iconClass": "Circle"}}}, {"type": "Feature", "geometry": {"type": "Point", "coordinates": [9.215895999999999, 45.4915229]}, "properties": {"name": "Venini", "description": "### alicepizza_official\n**Sede:** Venini\n**Indirizzo:** Via Giulio e Corrado Venini 57, Milano , Milano\n**Telefono:** 0240703328\n**Sito Web:** [[https://www.alicepizza.it/store/alice-venini/|Link]]", "_umap_options": {"color": "#666666", "iconClass": "Circle"}}}, {"type": "Feature", "geometry": {"type": "Point", "coordinates": [10.1648579, 45.5340601]}, "properties": {"name": "Alice Elnos", "description": "### alicepizza_official\n**Sede:** Alice Elnos\n**Indirizzo:** Elnos Shopping, Via Luigi Einaudi, 5, 25030 Roncadelle BS, Roncadelle\n**Sito Web:** [[https://www.alicepizza.it/store/alice-elnos/|Link]]", "_umap_options": {"color": "#666666", "iconClass": "Circle"}}}, {"type": "Feature", "geometry": {"type": "Point", "coordinates": [10.9845938, 45.4351281]}, "properties": {"name": "Alice Santo Spirito", "description": "### alicepizza_official\n**Sede:** Alice Santo Spirito\n**Indirizzo:** Piazza Santo Spirito 4/8, 37122 Verona, Veneto, Verona\n**Sito Web:** [[https://www.alicepizza.it/store/alice-santo-spirito/|Link]]", "_umap_options": {"color": "#666666", "iconClass": "Circle"}}}, {"type": "Feature", "geometry": {"type": "Point", "coordinates": [17.9023281, 40.6184193]}, "properties": {"name": "Alice Brindisi", "description": "### alicepizza_official\n**Sede:** Alice Brindisi\n**Indirizzo:** Centro Commerciale Le Colonne, SS7, 712, 72100 Brindisi BR, Brindisi\n**Telefono:** 0831 1771004\n**Sito Web:** [[https://www.alicepizza.it/store/alice-brindisi/|Link]]", "_umap_options": {"color": "#666666", "iconClass": "Circle"}}}, {"type": "Feature", "geometry": {"type": "Point", "coordinates": [9.1527504, 45.4937546]}, "properties": {"name": "Prealpi", "description": "### alicepizza_official\n**Sede:** Prealpi\n**Indirizzo:** Via Masolino da Panicale 12, Milano , Milano\n**Telefono:** 02.40703328\n**Sito Web:** [[https://www.alicepizza.it/store/alice-prealpi/|Link]]", "_umap_options": {"color": "#666666", "iconClass": "Circle"}}}, {"type": "Feature", "geometry": {"type": "Point", "coordinates": [12.501222, 41.892964]}, "properties": {"name": "Alice Merulana", "description": "### alicepizza_official\n**Sede:** Alice Merulana\n**Indirizzo:** Via Merulana 232, 00185 Roma , Roma\n**Sito Web:** [[https://www.alicepizza.it/store/alice-merulana/|Link]]", "_umap_options": {"color": "#666666", "iconClass": "Circle"}}}, {"type": "Feature", "geometry": {"type": "Point", "coordinates": [9.173767000000002, 45.513963]}, "properties": {"name": "Alice Affori", "description": "### alicepizza_official\n**Sede:** Alice Affori\n**Indirizzo:** Via Pellegrino Rossi 80, Milano , Milano\n**Telefono:** 02.40703328\n**Sito Web:** [[https://www.alicepizza.it/store/alice-affori/|Link]]", "_umap_options": {"color": "#666666", "iconClass": "Circle"}}}, {"type": "Feature", "geometry": {"type": "Point", "coordinates": [12.5589774, 41.89425490000001]}, "properties": {"name": "Alice Tor de' Schiavi", "description": "### alicepizza_official\n**Sede:** Alice Tor de' Schiavi\n**Indirizzo:** Via Tor de' Schiavi 403-407 00171 Roma , Roma\n**Telefono:** 3407816912\n**Sito Web:** [[https://www.alicepizza.it/store/alice-tor-de-schiavi/|Link]]", "_umap_options": {"color": "#666666", "iconClass": "Circle"}}}, {"type": "Feature", "geometry": {"type": "Point", "coordinates": [8.8633425, 45.641487]}, "properties": {"name": "Alice Solbiate Olona", "description": "### alicepizza_official\n**Sede:** Alice Solbiate Olona\n**Indirizzo:** Centro Commerciale Le Betulle, Via per Busto Arsizio, 11, 21058 Solbiate Olona VA, Solbiate Olona\n**Telefono:** 03311684709\n**Sito Web:** [[https://www.alicepizza.it/store/alice-solbiate/|Link]]", "_umap_options": {"color": "#666666", "iconClass": "Circle"}}}, {"type": "Feature", "geometry": {"type": "Point", "coordinates": [9.5228877, 40.9095977]}, "properties": {"name": "Alice Olbia", "description": "### alicepizza_official\n**Sede:** Alice Olbia\n**Indirizzo:** Centro commerciale Olbia Mare, Strada Statale 125 Orientale Sarda, 07026 Olbia SS, Olbia\n**Telefono:** 0789 1672081\n**Sito Web:** [[https://www.alicepizza.it/store/alice-olbia/|Link]]", "_umap_options": {"color": "#666666", "iconClass": "Circle"}}}, {"type": "Feature", "geometry": {"type": "Point", "coordinates": [9.9995172, 45.5799886]}, "properties": {"name": "Alice Le Porte Franche", "description": "### alicepizza_official\n**Sede:** Alice Le Porte Franche\n**Indirizzo:** Centro Commerciale Le Porte Franche, Via Rovato 44,   25030 Erbusco (BS), Erbusco\n**Telefono:** +39 030 13878513\n**Sito Web:** [[https://www.alicepizza.it/store/alice-le-porte-franche/|Link]]", "_umap_options": {"color": "#666666", "iconClass": "Circle"}}}, {"type": "Feature", "geometry": {"type": "Point", "coordinates": [12.3060195, 45.5459202]}, "properties": {"name": "Alice Marcon", "description": "### alicepizza_official\n**Sede:** Alice Marcon\n**Indirizzo:** Centro Commerciale Valecenter, Via Enrico Mattei, 1 / C, 30020 Marcon VE, Marcon\n**Sito Web:** [[https://www.alicepizza.it/store/alice-marcon/|Link]]", "_umap_options": {"color": "#666666", "iconClass": "Circle"}}}, {"type": "Feature", "geometry": {"type": "Point", "coordinates": [9.2069561, 45.4949567]}, "properties": {"name": "Gioia", "description": "### alicepizza_official\n**Sede:** Gioia\n**Indirizzo:** Via Melchiorre Gioia 139, 20125 Milano, Lombardia, Milano\n**Telefono:** +390240703328\n**Sito Web:** [[https://www.alicepizza.it/store/alice-gioia/|Link]]", "_umap_options": {"color": "#666666", "iconClass": "Circle"}}}, {"type": "Feature", "geometry": {"type": "Point", "coordinates": [8.7230246, 45.6807168]}, "properties": {"name": "Alice Somma Lombardo", "description": "### alicepizza_official\n**Sede:** Alice Somma Lombardo\n**Indirizzo:** Via Soragana, 1, 21019 Somma Lombardo VA, Centro Commerciale Il Gigante , Somma Lombardo\n**Sito Web:** [[https://www.alicepizza.it/store/alice-somma-lombardo/|Link]]", "_umap_options": {"color": "#666666", "iconClass": "Circle"}}}, {"type": "Feature", "geometry": {"type": "Point", "coordinates": [12.8152479, 45.7907586]}, "properties": {"name": "Alice Adriatico2", "description": "### alicepizza_official\n**Sede:** Alice Adriatico2\n**Indirizzo:** Centro Commerciale Adriatico2, Via Prati Guori, 29, 30026 Portogruaro VE, Portogruaro\n**Telefono:** 04221770054\n**Sito Web:** [[https://www.alicepizza.it/store/alice-adriatico2/|Link]]", "_umap_options": {"color": "#666666", "iconClass": "Circle"}}}, {"type": "Feature", "geometry": {"type": "Point", "coordinates": [9.4541661, 45.5459044]}, "properties": {"name": "Alice La Corte Lombarda", "description": "### alicepizza_official\n**Sede:** Alice La Corte Lombarda\n**Indirizzo:** Centro Commerciale La Corte Lombarda, Via Padana Superiore, 154, 20060 Bellinzago Lombardo MI, Bellinzago Lombardo\n**Sito Web:** [[https://www.alicepizza.it/store/alice-pizza-la-corte-lombarda/|Link]]", "_umap_options": {"color": "#666666", "iconClass": "Circle"}}}, {"type": "Feature", "geometry": {"type": "Point", "coordinates": [9.176421699999999, 45.5034782]}, "properties": {"name": "Dergano", "description": "### alicepizza_official\n**Sede:** Dergano\n**Indirizzo:** Via Giuseppe Tartini 3, Milano , Milano\n**Telefono:** 0240032101\n**Sito Web:** [[https://www.alicepizza.it/store/alice-pizza-dergano/|Link]]", "_umap_options": {"color": "#666666", "iconClass": "Circle"}}}, {"type": "Feature", "geometry": {"type": "Point", "coordinates": [9.180468399999999, 45.5748958]}, "properties": {"name": "Alice CC Brianza", "description": "### alicepizza_official\n**Sede:** Alice CC Brianza\n**Indirizzo:** Centro Commerciale Brianza Strada dei Giovi, Paderno Dugnano , Paderno Dugnano\n**Telefono:** 0250307627\n**Sito Web:** [[https://www.alicepizza.it/store/alice-cc-brianza/|Link]]", "_umap_options": {"color": "#666666", "iconClass": "Circle"}}}, {"type": "Feature", "geometry": {"type": "Point", "coordinates": [9.1291029, 45.6091196]}, "properties": {"name": "Alice Limbiate", "description": "### alicepizza_official\n**Sede:** Alice Limbiate\n**Indirizzo:** CC Limbiate Via Giuseppe Garibaldi Ex SS 527, 20812 Limbiate MB Limbiate, Limbiate\n**Telefono:** 0289865994\n**Sito Web:** [[https://www.alicepizza.it/store/alice-limbiate/|Link]]", "_umap_options": {"color": "#666666", "iconClass": "Circle"}}}, {"type": "Feature", "geometry": {"type": "Point", "coordinates": [9.170683, 45.4531073]}, "properties": {"name": "via Vigevano", "description": "### alicepizza_official\n**Sede:** via Vigevano\n**Indirizzo:** Via Vigevano 43, Milano , Milano\n**Telefono:** +390242101151\n**Sito Web:** [[https://www.alicepizza.it/store/alice-porta-genova/|Link]]", "_umap_options": {"color": "#666666", "iconClass": "Circle"}}}, {"type": "Feature", "geometry": {"type": "Point", "coordinates": [12.400245498539476, 41.886699179447696]}, "properties": {"name": "Alice Aurelia", "description": "### alicepizza_official\n**Sede:** Alice Aurelia\n**Indirizzo:** Via Aurelia 8/456 00163, Roma , Roma\n**Telefono:** 0687805751\n**Sito Web:** [[https://www.alicepizza.it/store/alice-aurelia/|Link]]", "_umap_options": {"color": "#666666", "iconClass": "Circle"}}}, {"type": "Feature", "geometry": {"type": "Point", "coordinates": [12.4735145, 41.9465995]}, "properties": {"name": "Alice Fleming", "description": "### alicepizza_official\n**Sede:** Alice Fleming\n**Indirizzo:** Via Flaminia 679, Roma , Roma\n**Telefono:** 06 9785 7681\n**Sito Web:** [[https://www.alicepizza.it/store/alice-fleming/|Link]]", "_umap_options": {"color": "#666666", "iconClass": "Circle"}}}, {"type": "Feature", "geometry": {"type": "Point", "coordinates": [9.2249672, 45.480965]}, "properties": {"name": "Città Studi", "description": "### alicepizza_official\n**Sede:** Città Studi\n**Indirizzo:** Via Antonio Bazzini 1, Milano , Milano\n**Telefono:** 02 4210 1154\n**Sito Web:** [[https://www.alicepizza.it/store/alice-citta-studi/|Link]]", "_umap_options": {"color": "#666666", "iconClass": "Circle"}}}, {"type": "Feature", "geometry": {"type": "Point", "coordinates": [12.485722, 41.8101306]}, "properties": {"name": "Alice Maximo", "description": "### alicepizza_official\n**Sede:** Alice Maximo\n**Indirizzo:** Via Laurentina 865 , Roma\n**Telefono:** 06 8780 5678\n**Sito Web:** [[https://www.alicepizza.it/store/alice-maximo/|Link]]", "_umap_options": {"color": "#666666", "iconClass": "Circle"}}}, {"type": "Feature", "geometry": {"type": "Point", "coordinates": [12.756117, 41.964529]}, "properties": {"name": "Alice Villanova di Guidonia", "description": "### alicepizza_official\n**Sede:** Alice Villanova di Guidonia\n**Indirizzo:** Via Maremmana Inferiore, 264, 00012 Guidonia Montecelio , Guidonia\n**Telefono:**  0774 707954\n**Sito Web:** [[https://www.alicepizza.it/store/alice-villanova-di-guidonia/|Link]]", "_umap_options": {"color": "#666666", "iconClass": "Circle"}}}, {"type": "Feature", "geometry": {"type": "Point", "coordinates": [9.1646638, 45.455602]}, "properties": {"name": "Alice Via Solari 23", "description": "### alicepizza_official\n**Sede:** Alice Via Solari 23\n**Indirizzo:** Via Andrea Solari 23, Milano , Milano\n**Telefono:** 0240702303\n**Sito Web:** [[https://www.alicepizza.it/store/alice-solari/|Link]]", "_umap_options": {"color": "#666666", "iconClass": "Circle"}}}, {"type": "Feature", "geometry": {"type": "Point", "coordinates": [9.215981771997077, 45.48553520533743]}, "properties": {"name": "Alice Buenos Aires", "description": "### alicepizza_official\n**Sede:** Alice Buenos Aires\n**Indirizzo:** Corso Buenos Aires 77, Milano , Milano\n**Telefono:** 0289919701\n**Sito Web:** [[https://www.alicepizza.it/store/alice-buenos-aires/|Link]]", "_umap_options": {"color": "#666666", "iconClass": "Circle"}}}, {"type": "Feature", "geometry": {"type": "Point", "coordinates": [7.7136526, 45.1173706]}, "properties": {"name": "Alice Porte di Torino", "description": "### alicepizza_official\n**Sede:** Alice Porte di Torino\n**Indirizzo:** Corso Romania, 460, 10156 Torino TO, Torino\n**Telefono:** 01119821721\n**Sito Web:** [[https://www.alicepizza.it/store/alice-porte-di-torino/|Link]]", "_umap_options": {"color": "#666666", "iconClass": "Circle"}}}, {"type": "Feature", "geometry": {"type": "Point", "coordinates": [12.3664481, 41.7818254]}, "properties": {"name": "Alice Acilia", "description": "### alicepizza_official\n**Sede:** Alice Acilia\n**Indirizzo:** Via di Acilia 71, Roma , Roma\n**Telefono:** +39 0695226 690\n**Sito Web:** [[https://www.alicepizza.it/store/alice-acilia/|Link]]", "_umap_options": {"color": "#666666", "iconClass": "Circle"}}}, {"type": "Feature", "geometry": {"type": "Point", "coordinates": [10.155173117196638, 45.872238601571915]}, "properties": {"name": "Alice Adamello", "description": "### alicepizza_official\n**Sede:** Alice Adamello\n**Indirizzo:** Centro Commerciale Adamello, Via Cassiano Serventi, n. 2, 25047 Darfo Boario Terme BS, Darfo Boario Terme\n**Telefono:** 03641941594\n**Sito Web:** [[https://www.alicepizza.it/store/alice-adamello/|Link]]", "_umap_options": {"color": "#666666", "iconClass": "Circle"}}}, {"type": "Feature", "geometry": {"type": "Point", "coordinates": [9.1529904, 45.40336749999999]}, "properties": {"name": "Alice Assago", "description": "### alicepizza_official\n**Sede:** Alice Assago\n**Indirizzo:** Centro Commerciale Milanofiori Viale Milano Fiori, 20090 Assago MI, Assago\n**Telefono:** 02 5004 3632\n**Sito Web:** [[https://www.alicepizza.it/store/alice-assago/|Link]]", "_umap_options": {"color": "#666666", "iconClass": "Circle"}}}, {"type": "Feature", "geometry": {"type": "Point", "coordinates": [12.4777202, 41.8259734]}, "properties": {"name": "Alice Aeronautica", "description": "### alicepizza_official\n**Sede:** Alice Aeronautica\n**Indirizzo:** Viale dell'Aeronautica, 84, Roma , Roma\n**Telefono:** +390687757547\n**Sito Web:** [[https://www.alicepizza.it/store/alice-aeronautica/|Link]]", "_umap_options": {"color": "#666666", "iconClass": "Circle"}}}, {"type": "Feature", "geometry": {"type": "Point", "coordinates": [10.784196930688461, 45.55289533669122]}, "properties": {"name": "Alice Affi", "description": "### alicepizza_official\n**Sede:** Alice Affi\n**Indirizzo:** Centro Commerciale Grand'Affi, Località Canove, 1, 37010 Affi , Affi\n**Telefono:** 0454682068\n**Sito Web:** [[https://www.alicepizza.it/store/alice-affi/|Link]]", "_umap_options": {"color": "#666666", "iconClass": "Circle"}}}, {"type": "Feature", "geometry": {"type": "Point", "coordinates": [12.2266859, 45.5108389]}, "properties": {"name": "Alice Mestre", "description": "### alicepizza_official\n**Sede:** Alice Mestre\n**Indirizzo:** Via Don Tosatto 22, Mestre\n**Telefono:** 041-8760064\n**Sito Web:** [[https://www.alicepizza.it/store/alice-mestre/|Link]]", "_umap_options": {"color": "#666666", "iconClass": "Circle"}}}, {"type": "Feature", "geometry": {"type": "Point", "coordinates": [12.4579685, 41.9047747]}, "properties": {"name": "Alice Via delle Grazie", "description": "### alicepizza_official\n**Sede:** Alice Via delle Grazie\n**Indirizzo:** Via delle Grazie 7/9 Roma, Roma\n**Telefono:** +39066875746\n**Sito Web:** [[https://www.alicepizza.it/store/alice-via-delle-grazie/|Link]]", "_umap_options": {"color": "#666666", "iconClass": "Circle"}}}, {"type": "Feature", "geometry": {"type": "Point", "coordinates": [12.4897034, 41.904872]}, "properties": {"name": "Alice Barberini", "description": "### alicepizza_official\n**Sede:** Alice Barberini\n**Indirizzo:** Via di San Basilio 56 Roma, Roma\n**Telefono:** 06/99702598\n**Sito Web:** [[https://www.alicepizza.it/store/alice-via-di-san-basilio/|Link]]", "_umap_options": {"color": "#666666", "iconClass": "Circle"}}}, {"type": "Feature", "geometry": {"type": "Point", "coordinates": [12.46823, 41.9470649]}, "properties": {"name": "Alice Via di Vigna Stelluti", "description": "### alicepizza_official\n**Sede:** Alice Via di Vigna Stelluti\n**Indirizzo:** Via di Vigna Stelluti 186 Roma, Roma\n**Telefono:** +390683791203\n**Sito Web:** [[https://www.alicepizza.it/store/alice-via-di-vigna-stelluti/|Link]]", "_umap_options": {"color": "#666666", "iconClass": "Circle"}}}, {"type": "Feature", "geometry": {"type": "Point", "coordinates": [12.4881815, 41.9086913]}, "properties": {"name": "Alice Via Lazio", "description": "### alicepizza_official\n**Sede:** Alice Via Lazio\n**Indirizzo:** Via Lazio 15 Roma, Roma\n**Telefono:** 06/42013297\n**Sito Web:** [[https://www.alicepizza.it/store/alice-via-lazio/|Link]]", "_umap_options": {"color": "#666666", "iconClass": "Circle"}}}, {"type": "Feature", "geometry": {"type": "Point", "coordinates": [12.4907316, 41.9080776]}, "properties": {"name": "Alice Via Marche", "description": "### alicepizza_official\n**Sede:** Alice Via Marche\n**Indirizzo:**  Via Marche 21 Roma , Roma\n**Telefono:** 06/4743344\n**Sito Web:** [[https://www.alicepizza.it/store/alice-via-marche/|Link]]", "_umap_options": {"color": "#666666", "iconClass": "Circle"}}}, {"type": "Feature", "geometry": {"type": "Point", "coordinates": [12.4776877, 41.8803999]}, "properties": {"name": "Alice Via Marmorata", "description": "### alicepizza_official\n**Sede:** Alice Via Marmorata\n**Indirizzo:** Via Marmorata 111 Roma, Roma\n**Telefono:** 06/5744787\n**Sito Web:** [[https://www.alicepizza.it/store/alice-via-marmorata/|Link]]", "_umap_options": {"color": "#666666", "iconClass": "Circle"}}}, {"type": "Feature", "geometry": {"type": "Point", "coordinates": [12.4643321, 41.91769590000001]}, "properties": {"name": "Alice Via Monte Zebio", "description": "### alicepizza_official\n**Sede:** Alice Via Monte Zebio\n**Indirizzo:** Via Monte Zebio 21 Roma, Roma\n**Telefono:** 06/37515021\n**Sito Web:** [[https://www.alicepizza.it/store/alice-via-monte-zebio/|Link]]", "_umap_options": {"color": "#666666", "iconClass": "Circle"}}}, {"type": "Feature", "geometry": {"type": "Point", "coordinates": [12.42973, 41.87707]}, "properties": {"name": "Alice Via Silvestri", "description": "### alicepizza_official\n**Sede:** Alice Via Silvestri\n**Indirizzo:** Via Silvestri 228 Roma, Roma\n**Telefono:** +390693379479\n**Sito Web:** [[https://www.alicepizza.it/store/alice-via-silvestri/|Link]]", "_umap_options": {"color": "#666666", "iconClass": "Circle"}}}, {"type": "Feature", "geometry": {"type": "Point", "coordinates": [12.4942853, 41.9092928]}, "properties": {"name": "Alice Via Romagna", "description": "### alicepizza_official\n**Sede:** Alice Via Romagna\n**Indirizzo:** Via Romagna 28 Roma, Roma\n**Telefono:** 06/483742\n**Sito Web:** [[https://www.alicepizza.it/store/alice-via-romagna/|Link]]", "_umap_options": {"color": "#666666", "iconClass": "Circle"}}}, {"type": "Feature", "geometry": {"type": "Point", "coordinates": [12.6202825, 42.0531211]}, "properties": {"name": "Alice Monterotondo", "description": "### alicepizza_official\n**Sede:** Alice Monterotondo\n**Indirizzo:** Via XX Settembre 2 Monterotondo, Monterotondo\n**Telefono:** 06/90623253\n**Sito Web:** [[https://www.alicepizza.it/store/alice-monterotondo/|Link]]", "_umap_options": {"color": "#666666", "iconClass": "Circle"}}}, {"type": "Feature", "geometry": {"type": "Point", "coordinates": [12.2774048, 41.7338663]}, "properties": {"name": "Alice Ostia", "description": "### alicepizza_official\n**Sede:** Alice Ostia\n**Indirizzo:** Viale Vasco de Gama 54 Ostia, Ostia\n**Telefono:** 06/5693659\n**Sito Web:** [[https://www.alicepizza.it/store/alice-ostia/|Link]]", "_umap_options": {"color": "#666666", "iconClass": "Circle"}}}, {"type": "Feature", "geometry": {"type": "Point", "coordinates": [12.4798282, 41.8722721]}, "properties": {"name": "Alice Ostiense", "description": "### alicepizza_official\n**Sede:** Alice Ostiense\n**Indirizzo:** Via Ostiense 48 Roma, Roma\n**Telefono:** +39065745472\n**Sito Web:** [[https://www.alicepizza.it/store/alice-ostiense/|Link]]", "_umap_options": {"color": "#666666", "iconClass": "Circle"}}}, {"type": "Feature", "geometry": {"type": "Point", "coordinates": [12.296133, 41.798868]}, "properties": {"name": "Alice Parco Leonardo", "description": "### alicepizza_official\n**Sede:** Alice Parco Leonardo\n**Indirizzo:** Centro Commerciale Viale Donato Bramante 31 Fiumicino\n**Telefono:** +390665001005\n**Sito Web:** [[https://www.alicepizza.it/store/alice-parco-leonardo/|Link]]", "_umap_options": {"color": "#666666", "iconClass": "Circle"}}}, {"type": "Feature", "geometry": {"type": "Point", "coordinates": [12.4925106, 41.9273045]}, "properties": {"name": "Alice Parioli", "description": "### alicepizza_official\n**Sede:** Alice Parioli\n**Indirizzo:** Via di Villa San Filippo 20 Roma, Roma\n**Telefono:** 06/80690314\n**Sito Web:** [[https://www.alicepizza.it/store/alice-parioli/|Link]]", "_umap_options": {"color": "#666666", "iconClass": "Circle"}}}, {"type": "Feature", "geometry": {"type": "Point", "coordinates": [12.4686605, 41.86436250000001]}, "properties": {"name": "Alice Marconi", "description": "### alicepizza_official\n**Sede:** Alice Marconi\n**Indirizzo:** Via Grimaldi 3 Roma, Roma\n**Telefono:** 06/83706255\n**Sito Web:** [[https://www.alicepizza.it/store/alice-marconi/|Link]]", "_umap_options": {"color": "#666666", "iconClass": "Circle"}}}, {"type": "Feature", "geometry": {"type": "Point", "coordinates": [7.5820211, 44.3931344]}, "properties": {"name": "Alice Cuneo", "description": "### alicepizza_official\n**Sede:** Alice Cuneo\n**Indirizzo:** Centro Commerciale Auchan Via Margarita 8 Cuneo, Cuneo\n**Telefono:** +390171346573\n**Sito Web:** [[https://www.alicepizza.it/store/alice-cuneo/|Link]]", "_umap_options": {"color": "#666666", "iconClass": "Circle"}}}, {"type": "Feature", "geometry": {"type": "Point", "coordinates": [12.4778457, 41.896086]}, "properties": {"name": "Alice Largo Argentina", "description": "### alicepizza_official\n**Sede:** Alice Largo Argentina\n**Indirizzo:** Corso Vittorio Emanuele II 35 Roma, Roma\n**Telefono:** +39066792923\n**Sito Web:** [[https://www.alicepizza.it/store/alice-largo-argentina/|Link]]", "_umap_options": {"color": "#666666", "iconClass": "Circle"}}}, {"type": "Feature", "geometry": {"type": "Point", "coordinates": [12.5088104, 41.88385359999999]}, "properties": {"name": "Alice Largo Magna Grecia", "description": "### alicepizza_official\n**Sede:** Alice Largo Magna Grecia\n**Indirizzo:** Largo Magna Grecia 24/25 Roma, Roma\n**Telefono:** +390677076221\n**Sito Web:** [[https://www.alicepizza.it/store/alice-largo-magna-grecia/|Link]]", "_umap_options": {"color": "#666666", "iconClass": "Circle"}}}, {"type": "Feature", "geometry": {"type": "Point", "coordinates": [12.8890917, 41.4560871]}, "properties": {"name": "Alice Latina", "description": "### alicepizza_official\n**Sede:** Alice Latina\n**Indirizzo:** Centro Commerciale Latinafiori Viale Pierluigi Nervi Latina, Latina\n**Telefono:** 0773/479021\n**Sito Web:** [[https://www.alicepizza.it/store/alice-latina/|Link]]", "_umap_options": {"color": "#666666", "iconClass": "Circle"}}}, {"type": "Feature", "geometry": {"type": "Point", "coordinates": [12.5218822, 41.9438734]}, "properties": {"name": "Alice Val Padana", "description": "### alicepizza_official\n**Sede:** Alice Val Padana\n**Indirizzo:** Viale Val Padana 130/132 Roma, Roma\n**Telefono:** 06/45598700\n**Sito Web:** [[https://www.alicepizza.it/store/alice-val-padana/|Link]]", "_umap_options": {"color": "#666666", "iconClass": "Circle"}}}, {"type": "Feature", "geometry": {"type": "Point", "coordinates": [12.4587778, 41.8506215]}, "properties": {"name": "Alice Magliana", "description": "### alicepizza_official\n**Sede:** Alice Magliana\n**Indirizzo:** Via di Villa Bonelli 6 Roma, Roma\n**Telefono:** 06/45547136\n**Sito Web:** [[https://www.alicepizza.it/store/alice-verona-le-corti-venete-2/|Link]]", "_umap_options": {"color": "#666666", "iconClass": "Circle"}}}, {"type": "Feature", "geometry": {"type": "Point", "coordinates": [12.5378403, 41.9096202]}, "properties": {"name": "Alice Via Cave di Pietralata", "description": "### alicepizza_official\n**Sede:** Alice Via Cave di Pietralata\n**Indirizzo:** Via Cave di Pietralata 47 Roma, Roma\n**Telefono:** 06/89520804\n**Sito Web:** [[https://www.alicepizza.it/store/alice-via-cave-di-pietralata/|Link]]", "_umap_options": {"color": "#666666", "iconClass": "Circle"}}}, {"type": "Feature", "geometry": {"type": "Point", "coordinates": [12.4813095, 41.9259341]}, "properties": {"name": "Alice Piazza Euclide", "description": "### alicepizza_official\n**Sede:** Alice Piazza Euclide\n**Indirizzo:** Via Civinini 91  Roma, Roma\n**Telefono:** 06/8077319\n**Sito Web:** [[https://www.alicepizza.it/store/alice-via-chiabrera-2/|Link]]", "_umap_options": {"color": "#666666", "iconClass": "Circle"}}}, {"type": "Feature", "geometry": {"type": "Point", "coordinates": [12.4798191, 41.8556278]}, "properties": {"name": "Alice Via Chiabrera", "description": "### alicepizza_official\n**Sede:** Alice Via Chiabrera\n**Indirizzo:** Via Chiabrera 17/19 Roma, Roma\n**Telefono:** 06/546830\n**Sito Web:** [[https://www.alicepizza.it/store/alice-via-chiabrera/|Link]]", "_umap_options": {"color": "#666666", "iconClass": "Circle"}}}, {"type": "Feature", "geometry": {"type": "Point", "coordinates": [12.5670858, 41.8816576]}, "properties": {"name": "Alice Via dei Castani", "description": "### alicepizza_official\n**Sede:** Alice Via dei Castani\n**Indirizzo:** Via dei Castani 66a Roma, Roma\n**Telefono:** +390664811924\n**Sito Web:** [[https://www.alicepizza.it/store/alice-via-dei-castani/|Link]]", "_umap_options": {"color": "#666666", "iconClass": "Circle"}}}, {"type": "Feature", "geometry": {"type": "Point", "coordinates": [12.5599345, 41.8583791]}, "properties": {"name": "Alice Tuscolana", "description": "### alicepizza_official\n**Sede:** Alice Tuscolana\n**Indirizzo:** Via Tuscolana 853f Roma, Roma\n**Telefono:** 06/765403\n**Sito Web:** [[https://www.alicepizza.it/store/alice-tuscolana/|Link]]", "_umap_options": {"color": "#666666", "iconClass": "Circle"}}}, {"type": "Feature", "geometry": {"type": "Point", "coordinates": [12.4335196, 41.8519034]}, "properties": {"name": "Alice Trullo", "description": "### alicepizza_official\n**Sede:** Alice Trullo\n**Indirizzo:** Via Portuense 716c, Roma\n**Telefono:** +390665796284\n**Sito Web:** [[https://www.alicepizza.it/store/alice-trullo/|Link]]", "_umap_options": {"color": "#666666", "iconClass": "Circle"}}}, {"type": "Feature", "geometry": {"type": "Point", "coordinates": [12.433212, 41.807816]}, "properties": {"name": "Alice Torrino", "description": "### alicepizza_official\n**Sede:** Alice Torrino\n**Indirizzo:** Via della Seta 5 Roma, Roma\n**Telefono:** 06/88541819\n**Sito Web:** [[https://www.alicepizza.it/store/alice-torrino/|Link]]", "_umap_options": {"color": "#666666", "iconClass": "Circle"}}}, {"type": "Feature", "geometry": {"type": "Point", "coordinates": [12.4556595, 41.8705667]}, "properties": {"name": "Alice San Camillo", "description": "### alicepizza_official\n**Sede:** Alice San Camillo\n**Indirizzo:** Ospedale San Camillo-Forlanini Circonvallazione Gianicolense 87 Roma, Roma\n**Telefono:** +393911881176\n**Sito Web:** [[https://www.alicepizza.it/store/alice-san-camillo/|Link]]", "_umap_options": {"color": "#666666", "iconClass": "Circle"}}}, {"type": "Feature", "geometry": {"type": "Point", "coordinates": [8.5358663, 40.7375928]}, "properties": {"name": "Alice Sassari", "description": "### alicepizza_official\n**Sede:** Alice Sassari\n**Indirizzo:** Centro Commerciale Porte di Sassari, Viale Porto Torres, 07100 Sassari SS, Sassari\n**Telefono:** 079/268207\n**Sito Web:** [[https://www.alicepizza.it/store/alice-sassari/|Link]]", "_umap_options": {"color": "#666666", "iconClass": "Circle"}}}, {"type": "Feature", "geometry": {"type": "Point", "coordinates": [12.5457676, 41.9490259]}, "properties": {"name": "Alice Talenti Via Franco Sacchetti", "description": "### alicepizza_official\n**Sede:** Alice Talenti Via Franco Sacchetti\n**Indirizzo:** Via Franco Sacchetti 41 Roma, Roma\n**Telefono:** +390688934176\n**Sito Web:** [[https://www.alicepizza.it/store/alice-talenti-via-franco-sacchetti/|Link]]", "_umap_options": {"color": "#666666", "iconClass": "Circle"}}}, {"type": "Feature", "geometry": {"type": "Point", "coordinates": [12.6972729, 41.955243]}, "properties": {"name": "Alice Tiburtino Shopping Center", "description": "### alicepizza_official\n**Sede:** Alice Tiburtino Shopping Center\n**Indirizzo:** Centro Commerciale Tiburtino Shopping Center Via dei Pioppi 6 Guidonia Montecelio, Guidonia\n**Telefono:** +390774554040\n**Sito Web:** [[https://www.alicepizza.it/store/alice-tiburtino-shopping-center/|Link]]", "_umap_options": {"color": "#666666", "iconClass": "Circle"}}}, {"type": "Feature", "geometry": {"type": "Point", "coordinates": [12.7966883, 41.9616569]}, "properties": {"name": "Alice Tivoli", "description": "### alicepizza_official\n**Sede:** Alice Tivoli\n**Indirizzo:** Largo Garibaldi 2 Tivoli, Tivoli\n**Telefono:** 0774/331593\n**Sito Web:** [[https://www.alicepizza.it/store/alice-tivoli/|Link]]", "_umap_options": {"color": "#666666", "iconClass": "Circle"}}}, {"type": "Feature", "geometry": {"type": "Point", "coordinates": [12.5152851, 41.92407559999999]}, "properties": {"name": "Alice Corso Trieste", "description": "### alicepizza_official\n**Sede:** Alice Corso Trieste\n**Indirizzo:** Corso Trieste 195/197 Roma, Roma\n**Telefono:** +390645596385\n**Sito Web:** [[https://www.alicepizza.it/store/alice-corso-trieste/|Link]]", "_umap_options": {"color": "#666666", "iconClass": "Circle"}}}, {"type": "Feature", "geometry": {"type": "Point", "coordinates": [12.548694, 41.851428]}, "properties": {"name": "Alice Happio", "description": "### alicepizza_official\n**Sede:** Alice Happio\n**Indirizzo:** Centro Commerciale Happio Via Appia Nuova 448 Roma, Roma\n**Telefono:** 06/78345548\n**Sito Web:** [[https://www.alicepizza.it/store/alice-happio/|Link]]", "_umap_options": {"color": "#666666", "iconClass": "Circle"}}}, {"type": "Feature", "geometry": {"type": "Point", "coordinates": [8.963305499999999, 45.6093616]}, "properties": {"name": "Alice Rescaldina", "description": "### alicepizza_official\n**Sede:** Alice Rescaldina\n**Indirizzo:** Centro Commerciale Rescaldina Via Palmiro Togliatti 2, Rescaldina\n**Telefono:** 02.40703328\n**Sito Web:** [[https://www.alicepizza.it/store/alice-rescaldina/|Link]]", "_umap_options": {"color": "#666666", "iconClass": "Circle"}}}, {"type": "Feature", "geometry": {"type": "Point", "coordinates": [12.6602427, 41.727373]}, "properties": {"name": "Alice Albano Laziale", "description": "### alicepizza_official\n**Sede:** Alice Albano Laziale\n**Indirizzo:** Corso Giacomo Matteotti 183 Albano, Albano Laziale\n**Telefono:** +390689537827\n**Sito Web:** [[https://www.alicepizza.it/store/alice-albano-laziale/|Link]]", "_umap_options": {"color": "#666666", "iconClass": "Circle"}}}, {"type": "Feature", "geometry": {"type": "Point", "coordinates": [12.4459086, 41.90471840000001]}, "properties": {"name": "Alice Ammiragli", "description": "### alicepizza_official\n**Sede:** Alice Ammiragli\n**Indirizzo:** Via degli Ammiragli 18 Roma, Roma\n**Telefono:** 06/39749283\n**Sito Web:** [[https://www.alicepizza.it/store/alice-ammiragli/|Link]]", "_umap_options": {"color": "#666666", "iconClass": "Circle"}}}, {"type": "Feature", "geometry": {"type": "Point", "coordinates": [12.6228369, 41.5867298]}, "properties": {"name": "CC Aprilia", "description": "### alicepizza_official\n**Sede:** CC Aprilia\n**Indirizzo:** C.C. Aprilia 2 SS 148 Pontina Km 44 Aprilia, Aprilia\n**Telefono:** 06/9253893\n**Sito Web:** [[https://www.alicepizza.it/store/alice-aprilia/|Link]]", "_umap_options": {"color": "#666666", "iconClass": "Circle"}}}, {"type": "Feature", "geometry": {"type": "Point", "coordinates": [13.427732, 42.03603400000001]}, "properties": {"name": "Alice Avezzano", "description": "### alicepizza_official\n**Sede:** Alice Avezzano\n**Indirizzo:** Via Camillo Corradini 195 Avezzano, Avezzano\n**Telefono:** 0863/455252\n**Sito Web:** [[https://www.alicepizza.it/store/alice-avezzano/|Link]]", "_umap_options": {"color": "#666666", "iconClass": "Circle"}}}, {"type": "Feature", "geometry": {"type": "Point", "coordinates": [12.4418975, 41.9198416]}, "properties": {"name": "Alice Balduina", "description": "### alicepizza_official\n**Sede:** Alice Balduina\n**Indirizzo:** Piazza della Balduina 10, Roma\n**Telefono:** +390653093210\n**Sito Web:** [[https://www.alicepizza.it/store/alice-balduina/|Link]]", "_umap_options": {"color": "#666666", "iconClass": "Circle"}}}, {"type": "Feature", "geometry": {"type": "Point", "coordinates": [12.4250208, 41.9023529]}, "properties": {"name": "Alice Boccea", "description": "### alicepizza_official\n**Sede:** Alice Boccea\n**Indirizzo:** Via di Boccea 116 Roma, Roma\n**Telefono:** 06/64463800\n**Sito Web:** [[https://www.alicepizza.it/store/alice-boccea/|Link]]", "_umap_options": {"color": "#666666", "iconClass": "Circle"}}}, {"type": "Feature", "geometry": {"type": "Point", "coordinates": [12.4441751, 41.8578319]}, "properties": {"name": "Alice Colli Portuensi", "description": "### alicepizza_official\n**Sede:** Alice Colli Portuensi\n**Indirizzo:** Viale dei Colli Portuensi 582 Roma, Roma\n**Telefono:** +39066537061\n**Sito Web:** [[https://www.alicepizza.it/store/alice-colli-portuensi/|Link]]", "_umap_options": {"color": "#666666", "iconClass": "Circle"}}}, {"type": "Feature", "geometry": {"type": "Point", "coordinates": [12.4942574, 41.8673507]}, "properties": {"name": "Alice Circonvallazione Ostiense", "description": "### alicepizza_official\n**Sede:** Alice Circonvallazione Ostiense\n**Indirizzo:** Circonvallazione Ostiense 353 Roma, Roma\n**Telefono:** +39065758496\n**Sito Web:** [[https://www.alicepizza.it/store/alice-circonvallazione-ostiense/|Link]]", "_umap_options": {"color": "#666666", "iconClass": "Circle"}}}, {"type": "Feature", "geometry": {"type": "Point", "coordinates": [12.5676424, 41.85387739999999]}, "properties": {"name": "Alice Cinecittà", "description": "### alicepizza_official\n**Sede:** Alice Cinecittà\n**Indirizzo:** Via Tito Labieno n.2/4 Roma, Roma\n**Telefono:** 06/71545244\n**Sito Web:** [[https://www.alicepizza.it/store/alice-cinecitta/|Link]]", "_umap_options": {"color": "#666666", "iconClass": "Circle"}}}, {"type": "Feature", "geometry": {"type": "Point", "coordinates": [14.1637492, 42.3478859]}, "properties": {"name": "Alice Chieti", "description": "### alicepizza_official\n**Sede:** Alice Chieti\n**Indirizzo:** Centro Commerciale Megalò Località Santa Filomena Chieti, Chieti\n**Telefono:** +390871565065\n**Sito Web:** [[https://www.alicepizza.it/store/alice-chieti/|Link]]", "_umap_options": {"color": "#666666", "iconClass": "Circle"}}}, {"type": "Feature", "geometry": {"type": "Point", "coordinates": [14.1293108, 42.5195623]}, "properties": {"name": "Alice CC Pescara Nord", "description": "### alicepizza_official\n**Sede:** Alice CC Pescara Nord\n**Indirizzo:** Via Leonardo Petruzzi 140 Pescara, Pescara\n**Telefono:** 02.40703328\n**Sito Web:** [[https://www.alicepizza.it/store/alice-centro-commerciale-pescara-nord/|Link]]", "_umap_options": {"color": "#666666", "iconClass": "Circle"}}}, {"type": "Feature", "geometry": {"type": "Point", "coordinates": [12.4726043, 41.89633509999999]}, "properties": {"name": "Alice Baullari", "description": "### alicepizza_official\n**Sede:** Alice Baullari\n**Indirizzo:** Via dei Baullari 140 Roma, Roma\n**Telefono:** +3906 6830 1577\n**Sito Web:** [[https://www.alicepizza.it/store/alice-baullari/|Link]]", "_umap_options": {"color": "#666666", "iconClass": "Circle"}}}, {"type": "Feature", "geometry": {"type": "Point", "coordinates": [12.5399574, 41.9712788]}, "properties": {"name": "Alice Porta di Roma", "description": "### alicepizza_official\n**Sede:** Alice Porta di Roma\n**Indirizzo:** Centro Commerciale Porta di Roma Via Alberto Lionello 201 Roma, Roma\n**Telefono:** +390687070650\n**Sito Web:** [[https://www.alicepizza.it/store/alice-porta-di-roma/|Link]]", "_umap_options": {"color": "#666666", "iconClass": "Circle"}}}, {"type": "Feature", "geometry": {"type": "Point", "coordinates": [12.4610027, 41.81768]}, "properties": {"name": "Alice Euroma 2", "description": "### alicepizza_official\n**Sede:** Alice Euroma 2\n**Indirizzo:** Centro Commerciale Euroma 2 Via Cristoforo Colombo 710 Roma, Roma\n**Telefono:** +390645472974\n**Sito Web:** [[https://www.alicepizza.it/store/alice-euroma-2/|Link]]", "_umap_options": {"color": "#666666", "iconClass": "Circle"}}}, {"type": "Feature", "geometry": {"type": "Point", "coordinates": [12.6616046, 41.9142713]}, "properties": {"name": "Alice Roma Est", "description": "### alicepizza_official\n**Sede:** Alice Roma Est\n**Indirizzo:** C.C. Roma Est Via Collatina 858 Km 12800 Roma, Roma\n**Telefono:** +390622510397\n**Sito Web:** [[https://www.alicepizza.it/store/alice-roma-est/|Link]]", "_umap_options": {"color": "#666666", "iconClass": "Circle"}}}, {"type": "Feature", "geometry": {"type": "Point", "coordinates": [12.5055434, 41.8781995]}, "properties": {"name": "Alice Via Satrico", "description": "### alicepizza_official\n**Sede:** Alice Via Satrico\n**Indirizzo:** Via Satrico 1d Roma, Roma\n**Telefono:** +390670495257\n**Sito Web:** [[https://www.alicepizza.it/store/alice-via-satrico/|Link]]", "_umap_options": {"color": "#666666", "iconClass": "Circle"}}}, {"type": "Feature", "geometry": {"type": "Point", "coordinates": [12.458483, 41.8817532]}, "properties": {"name": "Alice Quattro Venti", "description": "### alicepizza_official\n**Sede:** Alice Quattro Venti\n**Indirizzo:** Via dei Quattro Venti 92/94 Roma, Roma\n**Telefono:** +39065813671\n**Sito Web:** [[https://www.alicepizza.it/store/alice-quattro-venti/|Link]]", "_umap_options": {"color": "#666666", "iconClass": "Circle"}}}, {"type": "Feature", "geometry": {"type": "Point", "coordinates": [11.1169961, 42.7878287]}, "properties": {"name": "Alice Grosseto", "description": "### alicepizza_official\n**Sede:** Alice Grosseto\n**Indirizzo:** Centro Maremà Via Ecuador 30 Grosseto, Grosseto\n**Telefono:** +390564456883\n**Sito Web:** [[https://www.alicepizza.it/store/alice-grosseto/|Link]]", "_umap_options": {"color": "#666666", "iconClass": "Circle"}}}, {"type": "Feature", "geometry": {"type": "Point", "coordinates": [12.5717693, 41.85315629999999]}, "properties": {"name": "Alice Cinecittadue", "description": "### alicepizza_official\n**Sede:** Alice Cinecittadue\n**Indirizzo:** Centro Commerciale Cinecittadue, Roma\n**Telefono:** 06.88970945\n**Sito Web:** [[https://www.alicepizza.it/store/alice-cinecittadue/|Link]]", "_umap_options": {"color": "#666666", "iconClass": "Circle"}}}, {"type": "Feature", "geometry": {"type": "Point", "coordinates": [12.5910884, 41.8996128]}, "properties": {"name": "Alice Tor Sapienza", "description": "### alicepizza_official\n**Sede:** Alice Tor Sapienza\n**Indirizzo:** Via di Tor Sapienza 89 E, Roma\n**Telefono:** +39062284423\n**Sito Web:** [[https://www.alicepizza.it/store/alice-tor-sapienza/|Link]]", "_umap_options": {"color": "#666666", "iconClass": "Circle"}}}, {"type": "Feature", "geometry": {"type": "Point", "coordinates": [12.5002805, 41.6692995]}, "properties": {"name": "Alice Pomezia", "description": "### alicepizza_official\n**Sede:** Alice Pomezia\n**Indirizzo:** Via Orazio 21, Pomezia\n**Telefono:** +390669336383\n**Sito Web:** [[https://www.alicepizza.it/store/alice-pomezia/|Link]]", "_umap_options": {"color": "#666666", "iconClass": "Circle"}}}, {"type": "Feature", "geometry": {"type": "Point", "coordinates": [12.9564696, 41.76308239999999]}, "properties": {"name": "Alice Valmontone", "description": "### alicepizza_official\n**Sede:** Alice Valmontone\n**Indirizzo:** Valmontone Outlet Via della Pace, Località Pascolaro 00038 Valmontone, Valmontone\n**Telefono:** +39069591126\n**Sito Web:** [[https://www.alicepizza.it/store/alice-valmontone/|Link]]", "_umap_options": {"color": "#666666", "iconClass": "Circle"}}}, {"type": "Feature", "geometry": {"type": "Point", "coordinates": [12.7733269, 41.95657840000001]}, "properties": {"name": "Alice Villa Adriana", "description": "### alicepizza_official\n**Sede:** Alice Villa Adriana\n**Indirizzo:** Via Nazionale Tiburtina 161, Villa Adriana\n**Telefono:** +390774381604\n**Sito Web:** [[https://www.alicepizza.it/store/alice-villa-adriana/|Link]]", "_umap_options": {"color": "#666666", "iconClass": "Circle"}}}, {"type": "Feature", "geometry": {"type": "Point", "coordinates": [12.4913901, 41.8324452]}, "properties": {"name": "Alice Tintoretto", "description": "### alicepizza_official\n**Sede:** Alice Tintoretto\n**Indirizzo:** Via del Serafico 177 Roma, Roma\n**Telefono:** +393273373125\n**Sito Web:** [[https://www.alicepizza.it/store/alice-tintoretto/|Link]]", "_umap_options": {"color": "#666666", "iconClass": "Circle"}}}, {"type": "Feature", "geometry": {"type": "Point", "coordinates": [8.8852624, 44.4110337]}, "properties": {"name": "Genova CC Fiumara", "description": "### alicepizza_official\n**Sede:** Genova CC Fiumara\n**Indirizzo:** Fiumara Centro Commerciale - Via Fiumara 15 Genova , Genova\n**Telefono:** 010/2368611\n**Sito Web:** [[https://www.alicepizza.it/store/alice-genova/|Link]]", "_umap_options": {"color": "#666666", "iconClass": "Circle"}}}, {"type": "Feature", "geometry": {"type": "Point", "coordinates": [9.2937379, 45.4231305]}, "properties": {"name": "Alice Peschiera Borromeo", "description": "### alicepizza_official\n**Sede:** Alice Peschiera Borromeo\n**Indirizzo:** Galleria Borromea Shopping Center Via della Liberazione 8 , Peschiera Borromeo\n**Telefono:** +390251650295\n**Sito Web:** [[https://www.alicepizza.it/store/alice-peschiera-borromeo/|Link]]", "_umap_options": {"color": "#666666", "iconClass": "Circle"}}}, {"type": "Feature", "geometry": {"type": "Point", "coordinates": [12.4798677, 41.8721625]}, "properties": {"name": "Alice Sottopasso Ostiense", "description": "### alicepizza_official\n**Sede:** Alice Sottopasso Ostiense\n**Indirizzo:** Piazzale dei Partigiani, 00154 Roma, Roma\n**Telefono:** 0689939442\n**Sito Web:** [[https://www.alicepizza.it/store/alice-sottopasso-ostiense/|Link]]", "_umap_options": {"color": "#666666", "iconClass": "Circle"}}}, {"type": "Feature", "geometry": {"type": "Point", "coordinates": [12.5155838, 41.8989426]}, "properties": {"name": "Alice San Lorenzo", "description": "### alicepizza_official\n**Sede:** Alice San Lorenzo\n**Indirizzo:** Via Tiburtina 170/172, Roma\n**Telefono:** +390631075075\n**Sito Web:** [[https://www.alicepizza.it/store/alice-san-lorenzo/|Link]]", "_umap_options": {"color": "#666666", "iconClass": "Circle"}}}, {"type": "Feature", "geometry": {"type": "Point", "coordinates": [12.1992757, 44.4186028]}, "properties": {"name": "Alice Ravenna", "description": "### alicepizza_official\n**Sede:** Alice Ravenna\n**Indirizzo:** Via IV Novembre 35, Ravenna\n**Telefono:** +390544212727\n**Sito Web:** [[https://www.alicepizza.it/store/alice-ravenna/|Link]]", "_umap_options": {"color": "#666666", "iconClass": "Circle"}}}, {"type": "Feature", "geometry": {"type": "Point", "coordinates": [12.5787573, 41.9417301]}, "properties": {"name": "Alice San Basilio", "description": "### alicepizza_official\n**Sede:** Alice San Basilio\n**Indirizzo:** Via Casal Tidei 71/77, Roma\n**Telefono:** +390641227974\n**Sito Web:** [[https://www.alicepizza.it/store/alice-san-basilio/|Link]]", "_umap_options": {"color": "#666666", "iconClass": "Circle"}}}, {"type": "Feature", "geometry": {"type": "Point", "coordinates": [12.4164201, 41.9214027]}, "properties": {"name": "Alice Pietro Maffi", "description": "### alicepizza_official\n**Sede:** Alice Pietro Maffi\n**Indirizzo:** Via Pietro Maffi 8, Roma\n**Telefono:** Via Pietro Maffi 8\n**Sito Web:** [[https://www.alicepizza.it/store/alice-pietro-maffi/|Link]]", "_umap_options": {"color": "#666666", "iconClass": "Circle"}}}, {"type": "Feature", "geometry": {"type": "Point", "coordinates": [12.3758546, 41.7500335]}, "properties": {"name": "Alice Infernetto", "description": "### alicepizza_official\n**Sede:** Alice Infernetto\n**Indirizzo:** Via Ermanno Wolf Ferrari 241, Roma\n**Telefono:** +390650912957\n**Sito Web:** [[https://www.alicepizza.it/store/alice-infernetto/|Link]]", "_umap_options": {"color": "#666666", "iconClass": "Circle"}}}, {"type": "Feature", "geometry": {"type": "Point", "coordinates": [12.389761, 43.10876]}, "properties": {"name": "Alice Perugia", "description": "### alicepizza_official\n**Sede:** Alice Perugia\n**Indirizzo:** Via Sant'Ercolano n.32 Perugia, Perugia\n**Telefono:** +390754659939\n**Sito Web:** [[https://www.alicepizza.it/store/alice-perugia/|Link]]", "_umap_options": {"color": "#666666", "iconClass": "Circle"}}}, {"type": "Feature", "geometry": {"type": "Point", "coordinates": [12.53809, 41.94501]}, "properties": {"name": "Alice Monte Gennaro", "description": "### alicepizza_official\n**Sede:** Alice Monte Gennaro\n**Indirizzo:** Piazza Monte Gennaro 16 A, Roma\n**Telefono:** +390689230112\n**Sito Web:** [[https://www.alicepizza.it/store/alice-monte-gennaro/|Link]]", "_umap_options": {"color": "#666666", "iconClass": "Circle"}}}, {"type": "Feature", "geometry": {"type": "Point", "coordinates": [12.618953, 41.9947555]}, "properties": {"name": "Alice Fonte Nuova", "description": "### alicepizza_official\n**Sede:** Alice Fonte Nuova\n**Indirizzo:** Via Nomentana 622 Fonte Nuova (Roma), Fonte Nuova\n**Telefono:** +39069059654\n**Sito Web:** [[https://www.alicepizza.it/store/alice-fonte-nuova/|Link]]", "_umap_options": {"color": "#666666", "iconClass": "Circle"}}}, {"type": "Feature", "geometry": {"type": "Point", "coordinates": [12.0818989, 44.2443629]}, "properties": {"name": "Alice Forlì C.C. Punta di Ferro", "description": "### alicepizza_official\n**Sede:** Alice Forlì C.C. Punta di Ferro\n**Indirizzo:** C.C. Punta di Ferro Piazzale della Cooperazione 2 47122 Forlì, Forlì\n**Telefono:** +3905431801729\n**Sito Web:** [[https://www.alicepizza.it/store/alice-forli-c-c-punta-di-ferro/|Link]]", "_umap_options": {"color": "#666666", "iconClass": "Circle"}}}, {"type": "Feature", "geometry": {"type": "Point", "coordinates": [12.1795125, 44.3961911]}, "properties": {"name": "Alice C.C. Esp Ravenna", "description": "### alicepizza_official\n**Sede:** Alice C.C. Esp Ravenna\n**Indirizzo:** Centro Commerciale Esp Via Marco Bussato 74, 48124 Ravenna, Ravenna\n**Sito Web:** [[https://www.alicepizza.it/store/alice-c-c-esp-ravenna/|Link]]", "_umap_options": {"color": "#666666", "iconClass": "Circle"}}}, {"type": "Feature", "geometry": {"type": "Point", "coordinates": [10.864656, 45.4395599]}, "properties": {"name": "Alice Sona C.C. La GrandeMela Shoppingland", "description": "### alicepizza_official\n**Sede:** Alice Sona C.C. La GrandeMela Shoppingland\n**Indirizzo:** Via Trentino 1 Sona (VR), Sona\n**Telefono:** 045/6090497\n**Sito Web:** [[https://www.alicepizza.it/store/alice-sona-c-c-la-grandemela-shoppingland/|Link]]", "_umap_options": {"color": "#666666", "iconClass": "Circle"}}}, {"type": "Feature", "geometry": {"type": "Point", "coordinates": [12.5236183, 41.957684]}, "properties": {"name": "Alice Piazza Vimercati", "description": "### alicepizza_official\n**Sede:** Alice Piazza Vimercati\n**Indirizzo:** Piazza Ottaviano Vimercati 3/4/5, Roma\n**Telefono:** +39 068124681\n**Sito Web:** [[https://www.alicepizza.it/store/alice-piazza-vimercati/|Link]]", "_umap_options": {"color": "#666666", "iconClass": "Circle"}}}, {"type": "Feature", "geometry": {"type": "Point", "coordinates": [7.5422129, 44.3847111]}, "properties": {"name": "Alice Corso Giolitti (Cuneo)", "description": "### alicepizza_official\n**Sede:** Alice Corso Giolitti (Cuneo)\n**Indirizzo:** Corso Giolitti 4d, Cuneo\n**Telefono:** +39 01711875586\n**Sito Web:** [[https://www.alicepizza.it/store/alice-corso-giolitti-cuneo/|Link]]", "_umap_options": {"color": "#666666", "iconClass": "Circle"}}}, {"type": "Feature", "geometry": {"type": "Point", "coordinates": [12.6882515, 41.8630227]}, "properties": {"name": "Alice Finocchio", "description": "### alicepizza_official\n**Sede:** Alice Finocchio\n**Indirizzo:** Via Casilina 1859 B, Roma\n**Telefono:** +39 0620760503\n**Sito Web:** [[https://www.alicepizza.it/store/alice-finocchio/|Link]]", "_umap_options": {"color": "#666666", "iconClass": "Circle"}}}, {"type": "Feature", "geometry": {"type": "Point", "coordinates": [12.6408766, 41.868313]}, "properties": {"name": "Alice Tor Bella Monaca", "description": "### alicepizza_official\n**Sede:** Alice Tor Bella Monaca\n**Indirizzo:** Viale Paolo Ferdinando Quaglia 26, Roma\n**Telefono:** +390669212563\n**Sito Web:** [[https://www.alicepizza.it/store/alice-tor-bella-monaca/|Link]]", "_umap_options": {"color": "#666666", "iconClass": "Circle"}}}, {"type": "Feature", "geometry": {"type": "Point", "coordinates": [12.5906496, 41.8499227]}, "properties": {"name": "Alice Ciamarra", "description": "### alicepizza_official\n**Sede:** Alice Ciamarra\n**Indirizzo:** Viale Antonio Ciamarra 107 Roma, Roma\n**Telefono:** +39067211148\n**Sito Web:** [[https://www.alicepizza.it/store/alice-ciamarra/|Link]]", "_umap_options": {"color": "#666666", "iconClass": "Circle"}}}, {"type": "Feature", "geometry": {"type": "Point", "coordinates": [9.1722276, 45.2048375]}, "properties": {"name": "Alice Pavia C.C. Carrefour", "description": "### alicepizza_official\n**Sede:** Alice Pavia C.C. Carrefour\n**Indirizzo:** Strada Vigentina ang. Via Cassani, Pavia\n**Telefono:** 0382/495919\n**Sito Web:** [[https://www.alicepizza.it/store/alice-pavia-c-c-carrefour/|Link]]", "_umap_options": {"color": "#666666", "iconClass": "Circle"}}}, {"type": "Feature", "geometry": {"type": "Point", "coordinates": [12.6014352, 41.8046166]}, "properties": {"name": "Alice Ciampino", "description": "### alicepizza_official\n**Sede:** Alice Ciampino\n**Indirizzo:** Viale John Fitzgerald Kennedy 41 Ciampino, Ciampino\n**Telefono:** +39 067917722\n**Sito Web:** [[https://www.alicepizza.it/store/alice-ciampino/|Link]]", "_umap_options": {"color": "#666666", "iconClass": "Circle"}}}, {"type": "Feature", "geometry": {"type": "Point", "coordinates": [12.4374006, 41.9422455]}, "properties": {"name": "Alice Viale Cortina d’Ampezzo", "description": "### alicepizza_official\n**Sede:** Alice Viale Cortina d’Ampezzo\n**Indirizzo:** Viale Cortina d'Ampezzo 321/323 Roma, Roma\n**Telefono:** +390635502761\n**Sito Web:** [[https://www.alicepizza.it/store/alice-viale-cortina-dampezzo/|Link]]", "_umap_options": {"color": "#666666", "iconClass": "Circle"}}}, {"type": "Feature", "geometry": {"type": "Point", "coordinates": [12.6445278, 41.9755787]}, "properties": {"name": "Alice Palombarese", "description": "### alicepizza_official\n**Sede:** Alice Palombarese\n**Indirizzo:** Via Palombarese 207 Guidonia , Guidonia\n**Telefono:** +390774536403\n**Sito Web:** [[https://www.alicepizza.it/store/alice-palombarese/|Link]]", "_umap_options": {"color": "#666666", "iconClass": "Circle"}}}, {"type": "Feature", "geometry": {"type": "Point", "coordinates": [12.5744698, 41.9128632]}, "properties": {"name": "Alice Colli Aniene", "description": "### alicepizza_official\n**Sede:** Alice Colli Aniene\n**Indirizzo:** Via Edoardo D'Onofrio 94 Roma, Roma\n**Telefono:** 06 45422409\n**Sito Web:** [[https://www.alicepizza.it/store/alice-colli-aniene/|Link]]", "_umap_options": {"color": "#666666", "iconClass": "Circle"}}}, {"type": "Feature", "geometry": {"type": "Point", "coordinates": [9.6714541, 45.6932175]}, "properties": {"name": "Alice Bergamo", "description": "### alicepizza_official\n**Sede:** Alice Bergamo\n**Indirizzo:** Viale Papa Giovanni XXIII 44, Bergamo, Bergamo\n**Sito Web:** [[https://www.alicepizza.it/store/alice-c-c-oriocenter/|Link]]", "_umap_options": {"color": "#666666", "iconClass": "Circle"}}}, {"type": "Feature", "geometry": {"type": "Point", "coordinates": [12.5035796, 41.9016958]}, "properties": {"name": "Alice Via Marsala", "description": "### alicepizza_official\n**Sede:** Alice Via Marsala\n**Indirizzo:** Via Marsala 66 Roma, Roma\n**Telefono:** +39 06 8957 3867\n**Sito Web:** [[https://www.alicepizza.it/store/alice-via-marsala/|Link]]", "_umap_options": {"color": "#666666", "iconClass": "Circle"}}}, {"type": "Feature", "geometry": {"type": "Point", "coordinates": [12.3692716, 41.9164633]}, "properties": {"name": "Alice Casalotti", "description": "### alicepizza_official\n**Sede:** Alice Casalotti\n**Indirizzo:** Piazza Ormea 32, Roma\n**Telefono:** +39 06 164161000\n**Sito Web:** [[https://www.alicepizza.it/store/alice-casalotti/|Link]]", "_umap_options": {"color": "#666666", "iconClass": "Circle"}}}, {"type": "Feature", "geometry": {"type": "Point", "coordinates": [12.4479414, 41.7921707]}, "properties": {"name": "Alice Spinaceto", "description": "### alicepizza_official\n**Sede:** Alice Spinaceto\n**Indirizzo:** Viale dei Caduti per laResistenza 101 Roma, Roma\n**Telefono:** +39 0645546847\n**Sito Web:** [[https://www.alicepizza.it/store/alice-spinaceto/|Link]]", "_umap_options": {"color": "#666666", "iconClass": "Circle"}}}, {"type": "Feature", "geometry": {"type": "Point", "coordinates": [12.53064, 41.909794]}, "properties": {"name": "Alice Stazione Tiburtina", "description": "### alicepizza_official\n**Sede:** Alice Stazione Tiburtina\n**Indirizzo:** all'interno della Stazione Tiburtina, area Piazza Ipogea, Roma\n**Telefono:** +390635297403\n**Sito Web:** [[https://www.alicepizza.it/store/alice-stazione-tiburtina/|Link]]", "_umap_options": {"color": "#666666", "iconClass": "Circle"}}}, {"type": "Feature", "geometry": {"type": "Point", "coordinates": [12.5941568, 41.8381174]}, "properties": {"name": "Alice C.C. Anagnina", "description": "### alicepizza_official\n**Sede:** Alice C.C. Anagnina\n**Indirizzo:** C.C. Anagnina Via Torre di Mezzavia, 35, 00173 Roma RM, Roma\n**Telefono:** +39 0689236884\n**Sito Web:** [[https://www.alicepizza.it/store/alice-c-c-anagnina/|Link]]", "_umap_options": {"color": "#666666", "iconClass": "Circle"}}}, {"type": "Feature", "geometry": {"type": "Point", "coordinates": [10.501595, 43.842897]}, "properties": {"name": "Alice Lucca", "description": "### alicepizza_official\n**Sede:** Alice Lucca\n**Indirizzo:** Via S. Paolino 22 Lucca, Lucca\n**Telefono:** +390583572712\n**Sito Web:** [[https://www.alicepizza.it/store/alice-lucca/|Link]]", "_umap_options": {"color": "#666666", "iconClass": "Circle"}}}, {"type": "Feature", "geometry": {"type": "Point", "coordinates": [9.2076655, 45.4760613]}, "properties": {"name": "Spallanzani", "description": "### alicepizza_official\n**Sede:** Spallanzani\n**Indirizzo:** Via L. Spallanzani 18 Milano, Milano\n**Telefono:** +390245076249\n**Sito Web:** [[https://www.alicepizza.it/store/alice-spallanzani/|Link]]", "_umap_options": {"color": "#666666", "iconClass": "Circle"}}}, {"type": "Feature", "geometry": {"type": "Point", "coordinates": [12.382473, 42.003007]}, "properties": {"name": "Alice La Storta", "description": "### alicepizza_official\n**Sede:** Alice La Storta\n**Indirizzo:** Via Cassia 1665 Roma, Roma\n**Telefono:** +39 0642916688\n**Sito Web:** [[https://www.alicepizza.it/store/alice-la-storta/|Link]]", "_umap_options": {"color": "#666666", "iconClass": "Circle"}}}, {"type": "Feature", "geometry": {"type": "Point", "coordinates": [12.6528221, 41.5892598]}, "properties": {"name": "Alice Aprilia Via De Gasperi", "description": "### alicepizza_official\n**Sede:** Alice Aprilia Via De Gasperi\n**Indirizzo:** Via Alcide De Gasperi 79 Aprilia, Aprilia\n**Telefono:** +39 0649774410\n**Sito Web:** [[https://www.alicepizza.it/store/alice-aprilia-via-de-gasperi/|Link]]", "_umap_options": {"color": "#666666", "iconClass": "Circle"}}}, {"type": "Feature", "geometry": {"type": "Point", "coordinates": [12.4656633, 41.8313164]}, "properties": {"name": "Alice Viale Beethoven", "description": "### alicepizza_official\n**Sede:** Alice Viale Beethoven\n**Indirizzo:** Viale Beethoven, 72/74, Roma\n**Telefono:** +39 06 6942 8780\n**Sito Web:** [[https://www.alicepizza.it/store/alice-viale-beethoven/|Link]]", "_umap_options": {"color": "#666666", "iconClass": "Circle"}}}, {"type": "Feature", "geometry": {"type": "Point", "coordinates": [12.7102271, 41.954518]}, "properties": {"name": "Alice Guidonia", "description": "### alicepizza_official\n**Sede:** Alice Guidonia\n**Indirizzo:** Viale Roma 187, Guidonia, Guidonia\n**Telefono:** 0774706389\n**Sito Web:** [[https://www.alicepizza.it/store/alice-guidonia/|Link]]", "_umap_options": {"color": "#666666", "iconClass": "Circle"}}}, {"type": "Feature", "geometry": {"type": "Point", "coordinates": [12.4348884, 41.9717361]}, "properties": {"name": "Alice Grottarossa", "description": "### alicepizza_official\n**Sede:** Alice Grottarossa\n**Indirizzo:** Via di Grottarossa 20/22 Roma, Roma\n**Telefono:** +39  06 3099 9650\n**Sito Web:** [[https://www.alicepizza.it/store/alice-grottarossa/|Link]]", "_umap_options": {"color": "#666666", "iconClass": "Circle"}}}, {"type": "Feature", "geometry": {"type": "Point", "coordinates": [9.2832699, 45.5118252]}, "properties": {"name": "Alice Vimodrone", "description": "### alicepizza_official\n**Sede:** Alice Vimodrone\n**Indirizzo:** C.C. Auchan Via Padana Superiore, km 292, Vimodrone (MI), Vimodrone\n**Telefono:** 02.40703328\n**Sito Web:** [[https://www.alicepizza.it/store/alice-vimodrone/|Link]]", "_umap_options": {"color": "#666666", "iconClass": "Circle"}}}, {"type": "Feature", "geometry": {"type": "Point", "coordinates": [12.5358165, 41.8984195]}, "properties": {"name": "Alice Casal Bertone", "description": "### alicepizza_official\n**Sede:** Alice Casal Bertone\n**Indirizzo:** Via di Casal Bertone 163 , Roma\n**Telefono:** 0653099961\n**Sito Web:** [[https://www.alicepizza.it/store/alice-casal-bertone/|Link]]", "_umap_options": {"color": "#666666", "iconClass": "Circle"}}}, {"type": "Feature", "geometry": {"type": "Point", "coordinates": [14.4903382, 35.9216239]}, "properties": {"name": "Alice Malta", "description": "### alicepizza_official\n**Sede:** Alice Malta\n**Indirizzo:** 137 St. George’s Road, St Julians, St Julians\n**Telefono:** +356 2138 2009\n**Sito Web:** [[https://www.alicepizza.it/store/alice-malta/|Link]]", "_umap_options": {"color": "#666666", "iconClass": "Circle"}}}, {"type": "Feature", "geometry": {"type": "Point", "coordinates": [9.833530000000001, 44.11944]}, "properties": {"name": "Alice La Spezia", "description": "### alicepizza_official\n**Sede:** Alice La Spezia\n**Indirizzo:** Centro Commerciale Le Terrazze Via Fontevivo 17, La Spezia\n**Telefono:** +390187306376\n**Sito Web:** [[https://www.alicepizza.it/store/alice-la-spezia/|Link]]", "_umap_options": {"color": "#666666", "iconClass": "Circle"}}}, {"type": "Feature", "geometry": {"type": "Point", "coordinates": [12.4624245, 41.9085975]}, "properties": {"name": "Alice Fabio Massimo", "description": "### alicepizza_official\n**Sede:** Alice Fabio Massimo\n**Indirizzo:** Via Fabio Massimo 46 , Roma\n**Telefono:** 063221530\n**Sito Web:** [[https://www.alicepizza.it/store/alice-fabio-massimo/|Link]]", "_umap_options": {"color": "#666666", "iconClass": "Circle"}}}, {"type": "Feature", "geometry": {"type": "Point", "coordinates": [9.162399899999999, 39.2455891]}, "properties": {"name": "Alice Cagliari", "description": "### alicepizza_official\n**Sede:** Alice Cagliari\n**Indirizzo:** Centro Commerciale Le Vele, Via delle Serre, Quartucciu (Cagliari) , Cagliari\n**Telefono:** 070884167\n**Sito Web:** [[https://www.alicepizza.it/store/alice-cagliari/|Link]]", "_umap_options": {"color": "#666666", "iconClass": "Circle"}}}, {"type": "Feature", "geometry": {"type": "Point", "coordinates": [12.0789397, 41.9495176]}, "properties": {"name": "Alice Ladispoli", "description": "### alicepizza_official\n**Sede:** Alice Ladispoli\n**Indirizzo:** Viale Italia, 8, Ladispoli\n**Telefono:** 0631053285\n**Sito Web:** [[https://www.alicepizza.it/store/alice-ladispoli/|Link]]", "_umap_options": {"color": "#666666", "iconClass": "Circle"}}}, {"type": "Feature", "geometry": {"type": "Point", "coordinates": [12.5436317, 41.9084637]}, "properties": {"name": "Alice Via Tiburtina 574", "description": "### alicepizza_official\n**Sede:** Alice Via Tiburtina 574\n**Indirizzo:** Via Tiburtina 574/576 , Roma\n**Telefono:** 0666483442\n**Sito Web:** [[https://www.alicepizza.it/store/alice-via-tiburtina-574/|Link]]", "_umap_options": {"color": "#666666", "iconClass": "Circle"}}}, {"type": "Feature", "geometry": {"type": "Point", "coordinates": [12.4478148, 41.8740112]}, "properties": {"name": "Alice Gianicolense", "description": "### alicepizza_official\n**Sede:** Alice Gianicolense\n**Indirizzo:** Circonvallazione Gianicolense 278, Roma\n**Telefono:** 0686201074\n**Sito Web:** [[https://www.alicepizza.it/store/alice-gianicolense/|Link]]", "_umap_options": {"color": "#666666", "iconClass": "Circle"}}}, {"type": "Feature", "geometry": {"type": "Point", "coordinates": [12.094351, 42.424803]}, "properties": {"name": "Alice Tuscia", "description": "### alicepizza_official\n**Sede:** Alice Tuscia\n**Indirizzo:** Centro Commerciale Tuscia, Tangenziale Ovest , Viterbo, Viterbo\n**Telefono:** 0761092164\n**Sito Web:** [[https://www.alicepizza.it/store/alice-tuscia/|Link]]", "_umap_options": {"color": "#666666", "iconClass": "Circle"}}}, {"type": "Feature", "geometry": {"type": "Point", "coordinates": [12.6165056, 41.7659853]}, "properties": {"name": "Alice Nettunense", "description": "### alicepizza_official\n**Sede:** Alice Nettunense\n**Indirizzo:** Via Nettunense km 1+373, 00047 Marino RM, Roma\n**Telefono:** 3760014318\n**Sito Web:** [[https://www.alicepizza.it/store/alice-nettunense/|Link]]", "_umap_options": {"color": "#666666", "iconClass": "Circle"}}}, {"type": "Feature", "geometry": {"type": "Point", "coordinates": [12.5065335, 41.9399867]}, "properties": {"name": "Alice Salario Center", "description": "### alicepizza_official\n**Sede:** Alice Salario Center\n**Indirizzo:** Via Salaria 665, Salario Center, Roma , Roma\n**Telefono:** 3407149795\n**Sito Web:** [[https://www.alicepizza.it/store/alice-salario-center/|Link]]", "_umap_options": {"color": "#666666", "iconClass": "Circle"}}}, {"type": "Feature", "geometry": {"type": "Point", "coordinates": [14.9071298, 40.6359826]}, "properties": {"name": "Alice Maximall", "description": "### alicepizza_official\n**Sede:** Alice Maximall\n**Indirizzo:** Via Antonio Pacinotti, 84098 Località Scontrafata, Pontecagnano Faiano SA, Pontecagnano\n**Telefono:** 089.9254482\n**Sito Web:** [[https://www.alicepizza.it/store/alice-maximall/|Link]]", "_umap_options": {"color": "#666666", "iconClass": "Circle"}}}, {"type": "Feature", "geometry": {"type": "Point", "coordinates": [12.4792799, 41.856451]}, "properties": {"name": "Alice Giustiniano Imperatore", "description": "### alicepizza_official\n**Sede:** Alice Giustiniano Imperatore\n**Indirizzo:** Viale Giustiniano Imperatore 32, Roma, Roma\n**Telefono:** 06.45596951\n**Sito Web:** [[https://www.alicepizza.it/store/alice-giustiniano-imperatore/|Link]]", "_umap_options": {"color": "#666666", "iconClass": "Circle"}}}, {"type": "Feature", "geometry": {"type": "Point", "coordinates": [9.3684198, 45.5049129]}, "properties": {"name": "Alice Acquario", "description": "### alicepizza_official\n**Sede:** Alice Acquario\n**Indirizzo:** Vignate, Centro Commerciale Acquario, Via Nuova Cassanese, 10, 20060 (MI), Vignate\n**Telefono:** 02 3928 6342\n**Sito Web:** [[https://www.alicepizza.it/store/alice-acquario/|Link]]", "_umap_options": {"color": "#666666", "iconClass": "Circle"}}}, {"type": "Feature", "geometry": {"type": "Point", "coordinates": [12.5489889, 41.9578055]}, "properties": {"name": "Alice Dima Shopping Bufalotta", "description": "### alicepizza_official\n**Sede:** Alice Dima Shopping Bufalotta\n**Indirizzo:** Centro Commerciale Dima Shopping Bufalotta, Via Dario Niccodemi, 99, Roma, Roma\n**Telefono:** 0687130217\n**Sito Web:** [[https://www.alicepizza.it/store/alice-dima-shopping-bufalotta/|Link]]", "_umap_options": {"color": "#666666", "iconClass": "Circle"}}}, {"type": "Feature", "geometry": {"type": "Point", "coordinates": [12.4229176, 41.9363928]}, "properties": {"name": "Alice Torrevecchia", "description": "### alicepizza_official\n**Sede:** Alice Torrevecchia\n**Indirizzo:** Via di Torrevecchia 13, 00168 Roma , Roma\n**Telefono:** 0630601957\n**Sito Web:** [[https://www.alicepizza.it/store/torrevecchia/|Link]]", "_umap_options": {"color": "#666666", "iconClass": "Circle"}}}, {"type": "Feature", "geometry": {"type": "Point", "coordinates": [9.310402, 45.616783]}, "properties": {"name": "Alice Villasanta", "description": "### alicepizza_official\n**Sede:** Alice Villasanta\n**Indirizzo:** Centro Commerciale Villasanta Il Gigante, Via Tiziano Vecellio, 2 Villasanta, Monza Brianza , Monza\n**Telefono:** 039 578 3836\n**Sito Web:** [[https://www.alicepizza.it/store/alice-villasanta/|Link]]", "_umap_options": {"color": "#666666", "iconClass": "Circle"}}}, {"type": "Feature", "geometry": {"type": "Point", "coordinates": [7.69427, 45.06767]}, "properties": {"name": "Alice Torino Università", "description": "### alicepizza_official\n**Sede:** Alice Torino Università\n**Indirizzo:** Torino Università, Piazzale Aldo Moro, Torino\n**Telefono:** 0116683660\n**Sito Web:** [[https://www.alicepizza.it/store/alice-torino-universita/|Link]]", "_umap_options": {"color": "#666666", "iconClass": "Circle"}}}, {"type": "Feature", "geometry": {"type": "Point", "coordinates": [9.150020399999999, 45.5195347]}, "properties": {"name": "Alice Metropoli", "description": "### alicepizza_official\n**Sede:** Alice Metropoli\n**Indirizzo:** Via Carlo Amoretti 1, Novate Milanese Centro Commerciale Metropoli , Novate Milanese\n**Telefono:** 0226600450\n**Sito Web:** [[https://www.alicepizza.it/store/alice-metropoli/|Link]]", "_umap_options": {"color": "#666666", "iconClass": "Circle"}}}]}